[{"province":"서울특별시","city":null,"district":null,"lat":37.5666103,"lon":126.9783882},{"province":"서울특별시","city":"강동구","district":null,"lat":37.530126,"lon":127.1237708},{"province":"서울특별시","city":"강동구","district":"천호동","lat":37.5450159,"lon":127.1368066},{"province":"서울특별시","city":"강동구","district":"성내동","lat":37.5304417,"lon":127.122425},{"province":"서울특별시","city":"강동구","district":"암사동","lat":37.551508,"lon":127.132663},{"province":"서울특별시","city":"강동구","district":"둔촌동","lat":37.5333656,"lon":127.1419851},{"province":"서울특별시","city":"강동구","district":"고덕동","lat":37.5572593,"lon":127.1515382},{"province":"서울특별시","city":"강동구","district":"명일동","lat":37.5512453,"lon":127.1443656},{"province":"서울특별시","city":"강동구","district":"둔촌제2동","lat":37.5332885,"lon":127.1419221},{"province":"서울특별시","city":"강동구","district":"둔촌제1동","lat":37.5333656,"lon":127.1419851},{"province":"서울특별시","city":"강동구","district":"길동","lat":37.5345598,"lon":127.1426791},{"province":"서울특별시","city":"강동구","district":"성내제3동","lat":37.5260101,"lon":127.13287},{"province":"서울특별시","city":"강동구","district":"성내제2동","lat":37.532425,"lon":127.129563},{"province":"서울특별시","city":"강동구","district":"성내제1동","lat":37.5304417,"lon":127.122425},{"province":"서울특별시","city":"강동구","district":"천호제3동","lat":37.5361455,"lon":127.1332269},{"province":"서울특별시","city":"강동구","district":"천호제2동","lat":37.5435257,"lon":127.1254351},{"province":"서울특별시","city":"강동구","district":"천호제1동","lat":37.5450159,"lon":127.1368066},{"province":"서울특별시","city":"강동구","district":"암사제3동","lat":37.5549912,"lon":127.1408249},{"province":"서울특별시","city":"강동구","district":"암사제2동","lat":37.5517481,"lon":127.1272074},{"province":"서울특별시","city":"강동구","district":"암사제1동","lat":37.551508,"lon":127.132663},{"province":"서울특별시","city":"강동구","district":"고덕제2동","lat":37.5605,"lon":127.16435},{"province":"서울특별시","city":"강동구","district":"고덕제1동","lat":37.5572593,"lon":127.1515382},{"province":"서울특별시","city":"강동구","district":"명일제2동","lat":37.546366,"lon":127.1513427},{"province":"서울특별시","city":"강동구","district":"명일제1동","lat":37.5512453,"lon":127.1443656},{"province":"서울특별시","city":"강동구","district":"상일동","lat":37.550583,"lon":127.1683007},{"province":"서울특별시","city":"강동구","district":"강일동","lat":37.5649783,"lon":127.173909},{"province":"서울특별시","city":"송파구","district":null,"lat":37.5145636,"lon":127.1059186},{"province":"서울특별시","city":"송파구","district":"마천동","lat":37.4960195,"lon":127.1499724},{"province":"서울특별시","city":"송파구","district":"거여동","lat":37.4969643,"lon":127.1432324},{"province":"서울특별시","city":"송파구","district":"방이동","lat":37.510933,"lon":127.123925},{"province":"서울특별시","city":"송파구","district":"문정동","lat":37.4900982,"lon":127.1241719},{"province":"서울특별시","city":"송파구","district":"가락동","lat":37.4955568,"lon":127.1217864},{"province":"서울특별시","city":"송파구","district":"송파동","lat":37.5062595,"lon":127.1093393},{"province":"서울특별시","city":"송파구","district":"풍납동","lat":37.538092,"lon":127.122075},{"province":"서울특별시","city":"송파구","district":"신천동","lat":37.5239079,"lon":127.0989414},{"province":"서울특별시","city":"송파구","district":"잠실동","lat":37.5061,"lon":127.084338},{"province":"서울특별시","city":"송파구","district":"잠실7동","lat":37.5086777,"lon":127.0771146},{"province":"서울특별시","city":"송파구","district":"잠실6동","lat":37.518142,"lon":127.10065},{"province":"서울특별시","city":"송파구","district":"잠실4동","lat":37.5201089,"lon":127.1122668},{"province":"서울특별시","city":"송파구","district":"잠실3동","lat":37.513333,"lon":127.094375},{"province":"서울특별시","city":"송파구","district":"잠실2동","lat":37.5119488,"lon":127.088559},{"province":"서울특별시","city":"송파구","district":"잠실본동","lat":37.5061,"lon":127.084338},{"province":"서울특별시","city":"송파구","district":"위례동","lat":37.4811656,"lon":127.1439378},{"province":"서울특별시","city":"송파구","district":"장지동","lat":37.4785,"lon":127.1354},{"province":"서울특별시","city":"송파구","district":"문정2동","lat":37.489823,"lon":127.1108107},{"province":"서울특별시","city":"송파구","district":"문정1동","lat":37.4900982,"lon":127.1241719},{"province":"서울특별시","city":"송파구","district":"가락2동","lat":37.4987054,"lon":127.1266714},{"province":"서울특별시","city":"송파구","district":"가락1동","lat":37.4964898,"lon":127.1098653},{"province":"서울특별시","city":"송파구","district":"가락본동","lat":37.4955568,"lon":127.1217864},{"province":"서울특별시","city":"송파구","district":"삼전동","lat":37.502714,"lon":127.0925354},{"province":"서울특별시","city":"송파구","district":"석촌동","lat":37.503592,"lon":127.1037},{"province":"서울특별시","city":"송파구","district":"송파2동","lat":37.502317,"lon":127.1167651},{"province":"서울특별시","city":"송파구","district":"송파1동","lat":37.5062595,"lon":127.1093393},{"province":"서울특별시","city":"송파구","district":"오금동","lat":37.5030528,"lon":127.1281494},{"province":"서울특별시","city":"송파구","district":"오륜동","lat":37.515425,"lon":127.1343},{"province":"서울특별시","city":"송파구","district":"방이2동","lat":37.5164444,"lon":127.1114868},{"province":"서울특별시","city":"송파구","district":"방이1동","lat":37.510933,"lon":127.123925},{"province":"서울특별시","city":"송파구","district":"마천2동","lat":37.4968477,"lon":127.1485193},{"province":"서울특별시","city":"송파구","district":"마천1동","lat":37.4960195,"lon":127.1499724},{"province":"서울특별시","city":"송파구","district":"거여2동","lat":37.4935803,"lon":127.1468764},{"province":"서울특별시","city":"송파구","district":"거여1동","lat":37.4969643,"lon":127.1432324},{"province":"서울특별시","city":"송파구","district":"풍납2동","lat":37.5292584,"lon":127.1157686},{"province":"서울특별시","city":"송파구","district":"풍납1동","lat":37.538092,"lon":127.122075},{"province":"서울특별시","city":"강남구","district":null,"lat":37.517305,"lon":127.047502},{"province":"서울특별시","city":"강남구","district":"도곡동","lat":37.488238,"lon":127.0390246},{"province":"서울특별시","city":"강남구","district":"일원동","lat":37.491839,"lon":127.0879629},{"province":"서울특별시","city":"강남구","district":"율현동","lat":37.4717,"lon":127.1114},{"province":"서울특별시","city":"강남구","district":"자곡동","lat":37.4751929,"lon":127.0989125},{"province":"서울특별시","city":"강남구","district":"논현동","lat":37.5115706,"lon":127.028461},{"province":"서울특별시","city":"강남구","district":"대치동","lat":37.4931821,"lon":127.0567047},{"province":"서울특별시","city":"강남구","district":"삼성동","lat":37.5144424,"lon":127.062532},{"province":"서울특별시","city":"강남구","district":"개포동","lat":37.4827409,"lon":127.055737},{"province":"서울특별시","city":"강남구","district":"역삼동","lat":37.4954841,"lon":127.0333574},{"province":"서울특별시","city":"강남구","district":"수서동","lat":37.4889181,"lon":127.104929},{"province":"서울특별시","city":"강남구","district":"일원2동","lat":37.4922048,"lon":127.0737224},{"province":"서울특별시","city":"강남구","district":"일원1동","lat":37.491839,"lon":127.0879629},{"province":"서울특별시","city":"강남구","district":"일원본동","lat":37.4833484,"lon":127.0864633},{"province":"서울특별시","city":"강남구","district":"세곡동","lat":37.4643683,"lon":127.1043555},{"province":"서울특별시","city":"강남구","district":"개포4동","lat":37.4788183,"lon":127.0516374},{"province":"서울특별시","city":"강남구","district":"개포2동","lat":37.4897723,"lon":127.0689523},{"province":"서울특별시","city":"강남구","district":"개포1동","lat":37.4827409,"lon":127.055737},{"province":"서울특별시","city":"강남구","district":"도곡2동","lat":37.4837425,"lon":127.0464338},{"province":"서울특별시","city":"강남구","district":"도곡1동","lat":37.488238,"lon":127.0390246},{"province":"서울특별시","city":"강남구","district":"역삼2동","lat":37.4959674,"lon":127.0468034},{"province":"서울특별시","city":"강남구","district":"역삼1동","lat":37.4954841,"lon":127.0333574},{"province":"서울특별시","city":"강남구","district":"대치4동","lat":37.4997415,"lon":127.0579127},{"province":"서울특별시","city":"강남구","district":"대치2동","lat":37.5022848,"lon":127.0642072},{"province":"서울특별시","city":"강남구","district":"대치1동","lat":37.4931821,"lon":127.0567047},{"province":"서울특별시","city":"강남구","district":"삼성2동","lat":37.5112,"lon":127.04595},{"province":"서울특별시","city":"강남구","district":"삼성1동","lat":37.5144424,"lon":127.062532},{"province":"서울특별시","city":"강남구","district":"청담동","lat":37.525107,"lon":127.049291},{"province":"서울특별시","city":"강남구","district":"압구정동","lat":37.530642,"lon":127.030713},{"province":"서울특별시","city":"강남구","district":"논현2동","lat":37.517342,"lon":127.037213},{"province":"서울특별시","city":"강남구","district":"논현1동","lat":37.5115706,"lon":127.028461},{"province":"서울특별시","city":"강남구","district":"신사동","lat":37.5240101,"lon":127.0227814},{"province":"서울특별시","city":"서초구","district":null,"lat":37.483569,"lon":127.032598},{"province":"서울특별시","city":"서초구","district":"신원동","lat":37.4448,"lon":127.0641},{"province":"서울특별시","city":"서초구","district":"염곡동","lat":37.462035,"lon":127.054288},{"province":"서울특별시","city":"서초구","district":"서초동","lat":37.4901186,"lon":127.0195082},{"province":"서울특별시","city":"서초구","district":"반포동","lat":37.5004776,"lon":126.98606},{"province":"서울특별시","city":"서초구","district":"원지동","lat":37.4452,"lon":127.0476},{"province":"서울특별시","city":"서초구","district":"우면동","lat":37.466,"lon":127.0169},{"province":"서울특별시","city":"서초구","district":"양재동","lat":37.470101,"lon":127.039888},{"province":"서울특별시","city":"서초구","district":"방배동","lat":37.4941452,"lon":126.988785},{"province":"서울특별시","city":"서초구","district":"내곡동","lat":37.4493583,"lon":127.0583103},{"province":"서울특별시","city":"서초구","district":"양재2동","lat":37.470601,"lon":127.041188},{"province":"서울특별시","city":"서초구","district":"양재1동","lat":37.4716412,"lon":127.026744},{"province":"서울특별시","city":"서초구","district":"방배4동","lat":37.489007,"lon":126.9923344},{"province":"서울특별시","city":"서초구","district":"방배3동","lat":37.4784409,"lon":126.9999918},{"province":"서울특별시","city":"서초구","district":"방배2동","lat":37.4797439,"lon":126.9855106},{"province":"서울특별시","city":"서초구","district":"방배1동","lat":37.4832801,"lon":126.9945569},{"province":"서울특별시","city":"서초구","district":"방배본동","lat":37.4941452,"lon":126.988785},{"province":"서울특별시","city":"서초구","district":"반포4동","lat":37.4974314,"lon":127.0003853},{"province":"서울특별시","city":"서초구","district":"반포3동","lat":37.5120925,"lon":127.0056289},{"province":"서울특별시","city":"서초구","district":"반포2동","lat":37.5046022,"lon":126.9945091},{"province":"서울특별시","city":"서초구","district":"반포1동","lat":37.5050895,"lon":127.0135073},{"province":"서울특별시","city":"서초구","district":"반포본동","lat":37.5004776,"lon":126.98606},{"province":"서울특별시","city":"서초구","district":"잠원동","lat":37.5149619,"lon":127.0140771},{"province":"서울특별시","city":"서초구","district":"서초4동","lat":37.5026685,"lon":127.0221589},{"province":"서울특별시","city":"서초구","district":"서초3동","lat":37.4836682,"lon":127.0119725},{"province":"서울특별시","city":"서초구","district":"서초2동","lat":37.49208,"lon":127.02496},{"province":"서울특별시","city":"서초구","district":"서초1동","lat":37.4901186,"lon":127.0195082},{"province":"서울특별시","city":"관악구","district":null,"lat":37.4781549,"lon":126.9514847},{"province":"서울특별시","city":"관악구","district":"봉천동","lat":37.4779619,"lon":126.9534602},{"province":"서울특별시","city":"관악구","district":"난곡동","lat":37.4709634,"lon":126.9216507},{"province":"서울특별시","city":"관악구","district":"미성동","lat":37.4761761,"lon":126.9155534},{"province":"서울특별시","city":"관악구","district":"삼성동","lat":37.470101,"lon":126.932963},{"province":"서울특별시","city":"관악구","district":"대학동","lat":37.4706145,"lon":126.9369907},{"province":"서울특별시","city":"관악구","district":"조원동","lat":37.4826299,"lon":126.9078649},{"province":"서울특별시","city":"관악구","district":"난향동","lat":37.461429,"lon":126.918842},{"province":"서울특별시","city":"관악구","district":"신림동","lat":37.487426,"lon":126.927075},{"province":"서울특별시","city":"관악구","district":"신사동","lat":37.4829831,"lon":126.9192856},{"province":"서울특별시","city":"관악구","district":"서림동","lat":37.4749956,"lon":126.9349995},{"province":"서울특별시","city":"관악구","district":"신원동","lat":37.4815883,"lon":126.9273519},{"province":"서울특별시","city":"관악구","district":"서원동","lat":37.4797346,"lon":126.9313},{"province":"서울특별시","city":"관악구","district":"남현동","lat":37.4745394,"lon":126.9778366},{"province":"서울특별시","city":"관악구","district":"인헌동","lat":37.4750974,"lon":126.9652628},{"province":"서울특별시","city":"관악구","district":"중앙동","lat":37.4842598,"lon":126.9497133},{"province":"서울특별시","city":"관악구","district":"은천동","lat":37.4853086,"lon":126.9424278},{"province":"서울특별시","city":"관악구","district":"청룡동","lat":37.4791304,"lon":126.9416518},{"province":"서울특별시","city":"관악구","district":"낙성대동","lat":37.4762971,"lon":126.9583884},{"province":"서울특별시","city":"관악구","district":"행운동","lat":37.4806541,"lon":126.9570456},{"province":"서울특별시","city":"관악구","district":"성현동","lat":37.4895366,"lon":126.9481271},{"province":"서울특별시","city":"관악구","district":"청림동","lat":37.4918329,"lon":126.9585773},{"province":"서울특별시","city":"관악구","district":"보라매동","lat":37.4881456,"lon":126.9327389},{"province":"서울특별시","city":"동작구","district":null,"lat":37.51245,"lon":126.9395},{"province":"서울특별시","city":"동작구","district":"신대방동","lat":37.488943,"lon":126.91005},{"province":"서울특별시","city":"동작구","district":"사당동","lat":37.4830639,"lon":126.9786682},{"province":"서울특별시","city":"동작구","district":"동작동","lat":37.4991998,"lon":126.9738471},{"province":"서울특별시","city":"동작구","district":"본동","lat":37.5124285,"lon":126.9536286},{"province":"서울특별시","city":"동작구","district":"상도1동","lat":37.4981,"lon":126.953089},{"province":"서울특별시","city":"동작구","district":"상도동","lat":37.4981,"lon":126.953089},{"province":"서울특별시","city":"동작구","district":"노량진동","lat":37.512308,"lon":126.942013},{"province":"서울특별시","city":"동작구","district":"신대방제2동","lat":37.4984422,"lon":126.9244085},{"province":"서울특별시","city":"동작구","district":"신대방제1동","lat":37.488943,"lon":126.91005},{"province":"서울특별시","city":"동작구","district":"대방동","lat":37.508133,"lon":126.92635},{"province":"서울특별시","city":"동작구","district":"사당제5동","lat":37.4857521,"lon":126.9668658},{"province":"서울특별시","city":"동작구","district":"사당제4동","lat":37.4809888,"lon":126.9716704},{"province":"서울특별시","city":"동작구","district":"사당제3동","lat":37.4845247,"lon":126.9734908},{"province":"서울특별시","city":"동작구","district":"사당제2동","lat":37.4887323,"lon":126.9792598},{"province":"서울특별시","city":"동작구","district":"사당제1동","lat":37.4830639,"lon":126.9786682},{"province":"서울특별시","city":"동작구","district":"흑석동","lat":37.5058617,"lon":126.966612},{"province":"서울특별시","city":"동작구","district":"상도제4동","lat":37.4994203,"lon":126.941422},{"province":"서울특별시","city":"동작구","district":"상도제3동","lat":37.4991123,"lon":126.9313793},{"province":"서울특별시","city":"동작구","district":"상도제2동","lat":37.5055197,"lon":126.942296},{"province":"서울특별시","city":"동작구","district":"노량진제2동","lat":37.508509,"lon":126.937352},{"province":"서울특별시","city":"동작구","district":"노량진제1동","lat":37.512308,"lon":126.942013},{"province":"서울특별시","city":"영등포구","district":null,"lat":37.526436,"lon":126.896004},{"province":"서울특별시","city":"영등포구","district":"양평동","lat":37.538695,"lon":126.8885658},{"province":"서울특별시","city":"영등포구","district":"대림동","lat":37.4954685,"lon":126.905818},{"province":"서울특별시","city":"영등포구","district":"신길동","lat":37.5112667,"lon":126.9214285},{"province":"서울특별시","city":"영등포구","district":"양화동","lat":37.5488,"lon":126.8883},{"province":"서울특별시","city":"영등포구","district":"양평동6가","lat":37.541883,"lon":126.889838},{"province":"서울특별시","city":"영등포구","district":"양평동5가","lat":37.539,"lon":126.8925},{"province":"서울특별시","city":"영등포구","district":"양평동4가","lat":37.53635,"lon":126.89605},{"province":"서울특별시","city":"영등포구","district":"양평동3가","lat":37.5296,"lon":126.8918},{"province":"서울특별시","city":"영등포구","district":"양평동2가","lat":37.523067,"lon":126.883563},{"province":"서울특별시","city":"영등포구","district":"양평동1가","lat":37.5232,"lon":126.8886},{"province":"서울특별시","city":"영등포구","district":"문래동6가","lat":37.5201,"lon":126.8845},{"province":"서울특별시","city":"영등포구","district":"문래동5가","lat":37.5161,"lon":126.8849},{"province":"서울특별시","city":"영등포구","district":"문래동4가","lat":37.51455,"lon":126.889875},{"province":"서울특별시","city":"영등포구","district":"문래동3가","lat":37.517008,"lon":126.895338},{"province":"서울특별시","city":"영등포구","district":"문래동2가","lat":37.5126,"lon":126.8929},{"province":"서울특별시","city":"영등포구","district":"문래동1가","lat":37.5122837,"lon":126.8970685},{"province":"서울특별시","city":"영등포구","district":"당산동","lat":37.5347,"lon":126.9065},{"province":"서울특별시","city":"영등포구","district":"당산동6가","lat":37.535,"lon":126.9024},{"province":"서울특별시","city":"영등포구","district":"당산동5가","lat":37.5323,"lon":126.9009},{"province":"서울특별시","city":"영등포구","district":"당산동4가","lat":37.529,"lon":126.8991},{"province":"서울특별시","city":"영등포구","district":"당산동3가","lat":37.5261,"lon":126.8971},{"province":"서울특별시","city":"영등포구","district":"당산동2가","lat":37.5225,"lon":126.8936},{"province":"서울특별시","city":"영등포구","district":"당산동1가","lat":37.5216,"lon":126.8985},{"province":"서울특별시","city":"영등포구","district":"여의도동","lat":37.528317,"lon":126.929425},{"province":"서울특별시","city":"영등포구","district":"영등포동8가","lat":37.5289,"lon":126.9053},{"province":"서울특별시","city":"영등포구","district":"영등포동7가","lat":37.5242,"lon":126.907},{"province":"서울특별시","city":"영등포구","district":"영등포동6가","lat":37.5216,"lon":126.9032},{"province":"서울특별시","city":"영등포구","district":"영등포동5가","lat":37.5211,"lon":126.9066},{"province":"서울특별시","city":"영등포구","district":"영등포동4가","lat":37.518,"lon":126.903625},{"province":"서울특별시","city":"영등포구","district":"영등포동3가","lat":37.518,"lon":126.9082},{"province":"서울특별시","city":"영등포구","district":"영등포동2가","lat":37.5208,"lon":126.9117},{"province":"서울특별시","city":"영등포구","district":"영등포동1가","lat":37.5176074,"lon":126.9128363},{"province":"서울특별시","city":"영등포구","district":"대림제3동","lat":37.4983347,"lon":126.8980312},{"province":"서울특별시","city":"영등포구","district":"대림제2동","lat":37.4927521,"lon":126.8982938},{"province":"서울특별시","city":"영등포구","district":"대림제1동","lat":37.4954685,"lon":126.905818},{"province":"서울특별시","city":"영등포구","district":"신길제7동","lat":37.506392,"lon":126.921475},{"province":"서울특별시","city":"영등포구","district":"신길제6동","lat":37.498535,"lon":126.919437},{"province":"서울특별시","city":"영등포구","district":"신길제5동","lat":37.5016177,"lon":126.9052679},{"province":"서울특별시","city":"영등포구","district":"신길제4동","lat":37.5084555,"lon":126.9112884},{"province":"서울특별시","city":"영등포구","district":"신길제3동","lat":37.5073003,"lon":126.9077425},{"province":"서울특별시","city":"영등포구","district":"신길제1동","lat":37.5112667,"lon":126.9214285},{"province":"서울특별시","city":"영등포구","district":"양평제2동","lat":37.5364739,"lon":126.8939535},{"province":"서울특별시","city":"영등포구","district":"양평제1동","lat":37.52365,"lon":126.888238},{"province":"서울특별시","city":"영등포구","district":"문래동","lat":37.517086,"lon":126.899466},{"province":"서울특별시","city":"영등포구","district":"도림동","lat":37.509475,"lon":126.89595},{"province":"서울특별시","city":"영등포구","district":"당산제2동","lat":37.5310483,"lon":126.8973273},{"province":"서울특별시","city":"영등포구","district":"당산제1동","lat":37.5249643,"lon":126.897443},{"province":"서울특별시","city":"영등포구","district":"여의동","lat":37.5177232,"lon":126.934584},{"province":"서울특별시","city":"영등포구","district":"영등포동","lat":37.5203985,"lon":126.9106918},{"province":"서울특별시","city":"영등포구","district":"영등포본동","lat":37.5146826,"lon":126.9093046},{"province":"서울특별시","city":"금천구","district":null,"lat":37.4568644,"lon":126.8955105},{"province":"서울특별시","city":"금천구","district":"시흥동","lat":37.4535411,"lon":126.9032625},{"province":"서울특별시","city":"금천구","district":"독산동","lat":37.4702453,"lon":126.897041},{"province":"서울특별시","city":"금천구","district":"시흥제5동","lat":37.4523912,"lon":126.908294},{"province":"서울특별시","city":"금천구","district":"시흥제4동","lat":37.459029,"lon":126.9061924},{"province":"서울특별시","city":"금천구","district":"시흥제3동","lat":37.4403095,"lon":126.9057945},{"province":"서울특별시","city":"금천구","district":"시흥제2동","lat":37.4495487,"lon":126.9148345},{"province":"서울특별시","city":"금천구","district":"시흥제1동","lat":37.4535411,"lon":126.9032625},{"province":"서울특별시","city":"금천구","district":"독산제4동","lat":37.4675452,"lon":126.9022074},{"province":"서울특별시","city":"금천구","district":"독산제3동","lat":37.4751198,"lon":126.9032524},{"province":"서울특별시","city":"금천구","district":"독산제2동","lat":37.4631474,"lon":126.9034825},{"province":"서울특별시","city":"금천구","district":"독산제1동","lat":37.4702453,"lon":126.897041},{"province":"서울특별시","city":"금천구","district":"가산동","lat":37.4769094,"lon":126.8917326},{"province":"서울특별시","city":"구로구","district":null,"lat":37.495472,"lon":126.887536},{"province":"서울특별시","city":"구로구","district":"항동","lat":37.4801833,"lon":126.8233756},{"province":"서울특별시","city":"구로구","district":"천왕동","lat":37.4798417,"lon":126.8394389},{"province":"서울특별시","city":"구로구","district":"온수동","lat":37.4938,"lon":126.8207},{"province":"서울특별시","city":"구로구","district":"궁동","lat":37.5009,"lon":126.8277},{"province":"서울특별시","city":"구로구","district":"오류동","lat":37.497009,"lon":126.845201},{"province":"서울특별시","city":"구로구","district":"개봉동","lat":37.5003318,"lon":126.8511255},{"province":"서울특별시","city":"구로구","district":"고척동","lat":37.5004631,"lon":126.8628603},{"province":"서울특별시","city":"구로구","district":"구로동","lat":37.4930433,"lon":126.8757585},{"province":"서울특별시","city":"구로구","district":"수궁동","lat":37.4939422,"lon":126.8314627},{"province":"서울특별시","city":"구로구","district":"오류제2동","lat":37.4888016,"lon":126.8395371},{"province":"서울특별시","city":"구로구","district":"오류제1동","lat":37.497009,"lon":126.845201},{"province":"서울특별시","city":"구로구","district":"개봉제3동","lat":37.485993,"lon":126.853838},{"province":"서울특별시","city":"구로구","district":"개봉제2동","lat":37.4925187,"lon":126.8620808},{"province":"서울특별시","city":"구로구","district":"개봉제1동","lat":37.5003318,"lon":126.8511255},{"province":"서울특별시","city":"구로구","district":"고척제2동","lat":37.5067055,"lon":126.8587122},{"province":"서울특별시","city":"구로구","district":"고척제1동","lat":37.5004631,"lon":126.8628603},{"province":"서울특별시","city":"구로구","district":"가리봉동","lat":37.4825557,"lon":126.8897489},{"province":"서울특별시","city":"구로구","district":"구로제5동","lat":37.5001593,"lon":126.8892945},{"province":"서울특별시","city":"구로구","district":"구로제4동","lat":37.4916271,"lon":126.8891697},{"province":"서울특별시","city":"구로구","district":"구로제3동","lat":37.4873799,"lon":126.8903678},{"province":"서울특별시","city":"구로구","district":"구로제2동","lat":37.491377,"lon":126.8834703},{"province":"서울특별시","city":"구로구","district":"구로제1동","lat":37.4930433,"lon":126.8757585},{"province":"서울특별시","city":"구로구","district":"신도림동","lat":37.5077664,"lon":126.8805826},{"province":"서울특별시","city":"강서구","district":null,"lat":37.550937,"lon":126.849642},{"province":"서울특별시","city":"강서구","district":"오쇠동","lat":37.5435,"lon":126.7984},{"province":"서울특별시","city":"강서구","district":"오곡동","lat":37.5534,"lon":126.784},{"province":"서울특별시","city":"강서구","district":"과해동","lat":37.5662,"lon":126.7872},{"province":"서울특별시","city":"강서구","district":"개화동","lat":37.5874,"lon":126.8068},{"province":"서울특별시","city":"강서구","district":"방화동","lat":37.577333,"lon":126.813325},{"province":"서울특별시","city":"강서구","district":"외발산동","lat":37.5494,"lon":126.8207},{"province":"서울특별시","city":"강서구","district":"내발산동","lat":37.5535,"lon":126.8354},{"province":"서울특별시","city":"강서구","district":"마곡동","lat":37.5738,"lon":126.8304},{"province":"서울특별시","city":"강서구","district":"가양동","lat":37.5695239,"lon":126.8447099},{"province":"서울특별시","city":"강서구","district":"화곡동","lat":37.544075,"lon":126.847725},{"province":"서울특별시","city":"강서구","district":"등촌동","lat":37.5558155,"lon":126.8589287},{"province":"서울특별시","city":"강서구","district":"방화제3동","lat":37.5787386,"lon":126.8135628},{"province":"서울특별시","city":"강서구","district":"방화제2동","lat":37.5666997,"lon":126.8067549},{"province":"서울특별시","city":"강서구","district":"방화제1동","lat":37.5703659,"lon":126.817026},{"province":"서울특별시","city":"강서구","district":"공항동","lat":37.5588296,"lon":126.8101437},{"province":"서울특별시","city":"강서구","district":"우장산동","lat":37.5482468,"lon":126.8418849},{"province":"서울특별시","city":"강서구","district":"발산제1동","lat":37.5531209,"lon":126.8331686},{"province":"서울특별시","city":"강서구","district":"가양제3동","lat":37.561092,"lon":126.8605955},{"province":"서울특별시","city":"강서구","district":"가양제2동","lat":37.5673763,"lon":126.8512826},{"province":"서울특별시","city":"강서구","district":"가양제1동","lat":37.5695239,"lon":126.8447099},{"province":"서울특별시","city":"강서구","district":"화곡제8동","lat":37.5326541,"lon":126.848335},{"province":"서울특별시","city":"강서구","district":"화곡제6동","lat":37.5518173,"lon":126.8501301},{"province":"서울특별시","city":"강서구","district":"화곡본동","lat":37.544075,"lon":126.847725},{"province":"서울특별시","city":"강서구","district":"화곡제4동","lat":37.5346476,"lon":126.8609068},{"province":"서울특별시","city":"강서구","district":"화곡제3동","lat":37.5425392,"lon":126.8384231},{"province":"서울특별시","city":"강서구","district":"화곡제2동","lat":37.531817,"lon":126.854613},{"province":"서울특별시","city":"강서구","district":"화곡제1동","lat":37.530408,"lon":126.841562},{"province":"서울특별시","city":"강서구","district":"등촌제3동","lat":37.5589789,"lon":126.847881},{"province":"서울특별시","city":"강서구","district":"등촌제2동","lat":37.542658,"lon":126.8625},{"province":"서울특별시","city":"강서구","district":"등촌제1동","lat":37.5558155,"lon":126.8589287},{"province":"서울특별시","city":"강서구","district":"염창동","lat":37.553751,"lon":126.8709777},{"province":"서울특별시","city":"양천구","district":null,"lat":37.517016,"lon":126.866642},{"province":"서울특별시","city":"양천구","district":"신월동","lat":37.532808,"lon":126.831487},{"province":"서울특별시","city":"양천구","district":"목동","lat":37.5303777,"lon":126.8712323},{"province":"서울특별시","city":"양천구","district":"신정동","lat":37.5185289,"lon":126.8542636},{"province":"서울특별시","city":"양천구","district":"신정7동","lat":37.514393,"lon":126.8597007},{"province":"서울특별시","city":"양천구","district":"신정6동","lat":37.5170414,"lon":126.8644471},{"province":"서울특별시","city":"양천구","district":"신정4동","lat":37.5245455,"lon":126.8558042},{"province":"서울특별시","city":"양천구","district":"신정3동","lat":37.5151685,"lon":126.8547892},{"province":"서울특별시","city":"양천구","district":"신정2동","lat":37.5192314,"lon":126.870679},{"province":"서울특별시","city":"양천구","district":"신정1동","lat":37.5185289,"lon":126.8542636},{"province":"서울특별시","city":"양천구","district":"신월7동","lat":37.5219343,"lon":126.8346571},{"province":"서울특별시","city":"양천구","district":"신월6동","lat":37.5180328,"lon":126.8451512},{"province":"서울특별시","city":"양천구","district":"신월5동","lat":37.5386227,"lon":126.8271621},{"province":"서울특별시","city":"양천구","district":"신월4동","lat":37.5246218,"lon":126.8401341},{"province":"서울특별시","city":"양천구","district":"신월3동","lat":37.5336234,"lon":126.8291541},{"province":"서울특별시","city":"양천구","district":"신월2동","lat":37.5249763,"lon":126.8444512},{"province":"서울특별시","city":"양천구","district":"신월1동","lat":37.532808,"lon":126.831487},{"province":"서울특별시","city":"양천구","district":"목5동","lat":37.5371201,"lon":126.8816206},{"province":"서울특별시","city":"양천구","district":"목4동","lat":37.532425,"lon":126.86835},{"province":"서울특별시","city":"양천구","district":"목3동","lat":37.5448009,"lon":126.8644431},{"province":"서울특별시","city":"양천구","district":"목2동","lat":37.5461131,"lon":126.8717128},{"province":"서울특별시","city":"양천구","district":"목1동","lat":37.5303777,"lon":126.8712323},{"province":"서울특별시","city":"마포구","district":null,"lat":37.5663245,"lon":126.901491},{"province":"서울특별시","city":"마포구","district":"중동","lat":37.571725,"lon":126.9055},{"province":"서울특별시","city":"마포구","district":"성산동","lat":37.5634083,"lon":126.90785},{"province":"서울특별시","city":"마포구","district":"망원동","lat":37.5556222,"lon":126.9055969},{"province":"서울특별시","city":"마포구","district":"동교동","lat":37.557576,"lon":126.9251193},{"province":"서울특별시","city":"마포구","district":"당인동","lat":37.5425857,"lon":126.9199865},{"province":"서울특별시","city":"마포구","district":"신정동","lat":37.543392,"lon":126.930513},{"province":"서울특별시","city":"마포구","district":"하중동","lat":37.5435734,"lon":126.9277679},{"province":"서울특별시","city":"마포구","district":"상수동","lat":37.5469,"lon":126.9241},{"province":"서울특별시","city":"마포구","district":"창전동","lat":37.5501,"lon":126.93},{"province":"서울특별시","city":"마포구","district":"구수동","lat":37.5457426,"lon":126.9325321},{"province":"서울특별시","city":"마포구","district":"현석동","lat":37.5419,"lon":126.9345},{"province":"서울특별시","city":"마포구","district":"노고산동","lat":37.5541,"lon":126.938},{"province":"서울특별시","city":"마포구","district":"마포동","lat":37.537192,"lon":126.943975},{"province":"서울특별시","city":"마포구","district":"토정동","lat":37.5385,"lon":126.939688},{"province":"서울특별시","city":"마포구","district":"신공덕동","lat":37.54415,"lon":126.955825},{"province":"서울특별시","city":"마포구","district":"상암동","lat":37.578325,"lon":126.8946875},{"province":"서울특별시","city":"마포구","district":"성산제2동","lat":37.568618,"lon":126.9090061},{"province":"서울특별시","city":"마포구","district":"성산제1동","lat":37.5634083,"lon":126.90785},{"province":"서울특별시","city":"마포구","district":"연남동","lat":37.564501,"lon":126.922027},{"province":"서울특별시","city":"마포구","district":"망원제2동","lat":37.5602495,"lon":126.9023578},{"province":"서울특별시","city":"마포구","district":"망원제1동","lat":37.5556222,"lon":126.9055969},{"province":"서울특별시","city":"마포구","district":"합정동","lat":37.5516561,"lon":126.9118888},{"province":"서울특별시","city":"마포구","district":"서교동","lat":37.5551015,"lon":126.914588},{"province":"서울특별시","city":"마포구","district":"서강동","lat":37.5477577,"lon":126.9321095},{"province":"서울특별시","city":"마포구","district":"신수동","lat":37.5471182,"lon":126.9351878},{"province":"서울특별시","city":"마포구","district":"염리동","lat":37.547083,"lon":126.94565},{"province":"서울특별시","city":"마포구","district":"대흥동","lat":37.5557827,"lon":126.9424619},{"province":"서울특별시","city":"마포구","district":"용강동","lat":37.5422119,"lon":126.9426766},{"province":"서울특별시","city":"마포구","district":"도화동","lat":37.5415123,"lon":126.9498798},{"province":"서울특별시","city":"마포구","district":"공덕동","lat":37.550192,"lon":126.960025},{"province":"서울특별시","city":"마포구","district":"아현동","lat":37.547125,"lon":126.95215},{"province":"서울특별시","city":"서대문구","district":null,"lat":37.579225,"lon":126.9368},{"province":"서울특별시","city":"서대문구","district":"남가좌동","lat":37.573295,"lon":126.9197232},{"province":"서울특별시","city":"서대문구","district":"북가좌동","lat":37.57429,"lon":126.910194},{"province":"서울특별시","city":"서대문구","district":"홍은동","lat":37.5989056,"lon":126.9471111},{"province":"서울특별시","city":"서대문구","district":"창천동","lat":37.5586,"lon":126.9342},{"province":"서울특별시","city":"서대문구","district":"봉원동","lat":37.5727,"lon":126.9471},{"province":"서울특별시","city":"서대문구","district":"대신동","lat":37.565502,"lon":126.9459748},{"province":"서울특별시","city":"서대문구","district":"대현동","lat":37.5611167,"lon":126.94655},{"province":"서울특별시","city":"서대문구","district":"홍제동","lat":37.5876988,"lon":126.9448779},{"province":"서울특별시","city":"서대문구","district":"현저동","lat":37.574,"lon":126.954},{"province":"서울특별시","city":"서대문구","district":"영천동","lat":37.570442,"lon":126.95755},{"province":"서울특별시","city":"서대문구","district":"옥천동","lat":37.5693322,"lon":126.9590962},{"province":"서울특별시","city":"서대문구","district":"냉천동","lat":37.5672,"lon":126.9628},{"province":"서울특별시","city":"서대문구","district":"미근동","lat":37.563533,"lon":126.967},{"province":"서울특별시","city":"서대문구","district":"합동","lat":37.5614,"lon":126.9659},{"province":"서울특별시","city":"서대문구","district":"충정로3가","lat":37.5623,"lon":126.9621},{"province":"서울특별시","city":"서대문구","district":"충정로2가","lat":37.565025,"lon":126.9646125},{"province":"서울특별시","city":"서대문구","district":"북가좌제2동","lat":37.5815,"lon":126.9112},{"province":"서울특별시","city":"서대문구","district":"북가좌제1동","lat":37.57429,"lon":126.910194},{"province":"서울특별시","city":"서대문구","district":"남가좌제2동","lat":37.5784658,"lon":126.9238889},{"province":"서울특별시","city":"서대문구","district":"남가좌제1동","lat":37.573295,"lon":126.9197232},{"province":"서울특별시","city":"서대문구","district":"홍은제2동","lat":37.5801972,"lon":126.9342509},{"province":"서울특별시","city":"서대문구","district":"홍은제1동","lat":37.5989056,"lon":126.9471111},{"province":"서울특별시","city":"서대문구","district":"홍제제2동","lat":37.586107,"lon":126.949338},{"province":"서울특별시","city":"서대문구","district":"홍제제3동","lat":37.5938295,"lon":126.9496737},{"province":"서울특별시","city":"서대문구","district":"홍제제1동","lat":37.5876988,"lon":126.9448779},{"province":"서울특별시","city":"서대문구","district":"연희동","lat":37.5739083,"lon":126.9351754},{"province":"서울특별시","city":"서대문구","district":"신촌동","lat":37.5640923,"lon":126.9418114},{"province":"서울특별시","city":"서대문구","district":"충현동","lat":37.5648265,"lon":126.9546863},{"province":"서울특별시","city":"서대문구","district":"북아현동","lat":37.5595,"lon":126.957025},{"province":"서울특별시","city":"서대문구","district":"천연동","lat":37.5711247,"lon":126.9590332},{"province":"서울특별시","city":"은평구","district":null,"lat":37.602784,"lon":126.929164},{"province":"서울특별시","city":"은평구","district":"신사동","lat":37.5978445,"lon":126.9117735},{"province":"서울특별시","city":"은평구","district":"응암동","lat":37.6006884,"lon":126.926813},{"province":"서울특별시","city":"은평구","district":"갈현동","lat":37.623707,"lon":126.916675},{"province":"서울특별시","city":"은평구","district":"불광동","lat":37.6103876,"lon":126.9320747},{"province":"서울특별시","city":"은평구","district":"진관동","lat":37.634983,"lon":126.9210512},{"province":"서울특별시","city":"은평구","district":"수색동","lat":37.5835192,"lon":126.8936659},{"province":"서울특별시","city":"은평구","district":"증산동","lat":37.5843063,"lon":126.9070404},{"province":"서울특별시","city":"은평구","district":"신사제2동","lat":37.5902796,"lon":126.9084195},{"province":"서울특별시","city":"은평구","district":"신사제1동","lat":37.5978445,"lon":126.9117735},{"province":"서울특별시","city":"은평구","district":"역촌동","lat":37.6044046,"lon":126.915114},{"province":"서울특별시","city":"은평구","district":"응암제3동","lat":37.5922474,"lon":126.9157268},{"province":"서울특별시","city":"은평구","district":"응암제2동","lat":37.5946071,"lon":126.9230926},{"province":"서울특별시","city":"은평구","district":"응암제1동","lat":37.6006884,"lon":126.926813},{"province":"서울특별시","city":"은평구","district":"대조동","lat":37.614165,"lon":126.920813},{"province":"서울특별시","city":"은평구","district":"구산동","lat":37.6117455,"lon":126.9103893},{"province":"서울특별시","city":"은평구","district":"갈현제2동","lat":37.6185866,"lon":126.9158385},{"province":"서울특별시","city":"은평구","district":"갈현제1동","lat":37.623707,"lon":126.916675},{"province":"서울특별시","city":"은평구","district":"불광제2동","lat":37.6208567,"lon":126.9257389},{"province":"서울특별시","city":"은평구","district":"불광제1동","lat":37.6103876,"lon":126.9320747},{"province":"서울특별시","city":"은평구","district":"녹번동","lat":37.6021944,"lon":126.9298245},{"province":"서울특별시","city":"노원구","district":null,"lat":37.654358,"lon":127.056473},{"province":"서울특별시","city":"노원구","district":"중계동","lat":37.6525986,"lon":127.0775275},{"province":"서울특별시","city":"노원구","district":"상계동","lat":37.6799006,"lon":127.0549781},{"province":"서울특별시","city":"노원구","district":"하계동","lat":37.6405374,"lon":127.0725852},{"province":"서울특별시","city":"노원구","district":"공릉동","lat":37.624874,"lon":127.073838},{"province":"서울특별시","city":"노원구","district":"월계동","lat":37.6199197,"lon":127.0630165},{"province":"서울특별시","city":"노원구","district":"상계10동","lat":37.661274,"lon":127.060225},{"province":"서울특별시","city":"노원구","district":"상계9동","lat":37.664553,"lon":127.0638347},{"province":"서울특별시","city":"노원구","district":"상계8동","lat":37.6667854,"lon":127.0515874},{"province":"서울특별시","city":"노원구","district":"상계6.7동","lat":37.654882,"lon":127.0669541},{"province":"서울특별시","city":"노원구","district":"상계5동","lat":37.6627392,"lon":127.069498},{"province":"서울특별시","city":"노원구","district":"상계3.4동","lat":37.6729133,"lon":127.0832665},{"province":"서울특별시","city":"노원구","district":"상계2동","lat":37.6574727,"lon":127.0678377},{"province":"서울특별시","city":"노원구","district":"상계1동","lat":37.6799006,"lon":127.0549781},{"province":"서울특별시","city":"노원구","district":"중계2.3동","lat":37.6421829,"lon":127.0687126},{"province":"서울특별시","city":"노원구","district":"중계4동","lat":37.6587275,"lon":127.0780091},{"province":"서울특별시","city":"노원구","district":"중계1동","lat":37.6525986,"lon":127.0775275},{"province":"서울특별시","city":"노원구","district":"중계본동","lat":37.64784,"lon":127.080338},{"province":"서울특별시","city":"노원구","district":"하계2동","lat":37.6320048,"lon":127.0679733},{"province":"서울특별시","city":"노원구","district":"하계1동","lat":37.6405374,"lon":127.0725852},{"province":"서울특별시","city":"노원구","district":"공릉2동","lat":37.621332,"lon":127.083488},{"province":"서울특별시","city":"노원구","district":"공릉1동","lat":37.624874,"lon":127.073838},{"province":"서울특별시","city":"노원구","district":"월계3동","lat":37.6210475,"lon":127.0692485},{"province":"서울특별시","city":"노원구","district":"월계2동","lat":37.6325377,"lon":127.0508},{"province":"서울특별시","city":"노원구","district":"월계1동","lat":37.6199197,"lon":127.0630165},{"province":"서울특별시","city":"도봉구","district":null,"lat":37.668768,"lon":127.047163},{"province":"서울특별시","city":"도봉구","district":"도봉동","lat":37.6786913,"lon":127.0434369},{"province":"서울특별시","city":"도봉구","district":"창동","lat":37.6483046,"lon":127.0438683},{"province":"서울특별시","city":"도봉구","district":"방학동","lat":37.6641763,"lon":127.0407251},{"province":"서울특별시","city":"도봉구","district":"쌍문동","lat":37.6480275,"lon":127.0261145},{"province":"서울특별시","city":"도봉구","district":"방학제3동","lat":37.6591685,"lon":127.028036},{"province":"서울특별시","city":"도봉구","district":"방학제2동","lat":37.6681842,"lon":127.0351005},{"province":"서울특별시","city":"도봉구","district":"방학제1동","lat":37.6641763,"lon":127.0407251},{"province":"서울특별시","city":"도봉구","district":"쌍문제4동","lat":37.656482,"lon":127.028425},{"province":"서울특별시","city":"도봉구","district":"쌍문제3동","lat":37.6489775,"lon":127.0278643},{"province":"서울특별시","city":"도봉구","district":"쌍문제2동","lat":37.6579935,"lon":127.0389254},{"province":"서울특별시","city":"도봉구","district":"쌍문제1동","lat":37.6480275,"lon":127.0261145},{"province":"서울특별시","city":"도봉구","district":"도봉제2동","lat":37.669751,"lon":127.046575},{"province":"서울특별시","city":"도봉구","district":"도봉제1동","lat":37.6786913,"lon":127.0434369},{"province":"서울특별시","city":"도봉구","district":"창제5동","lat":37.6563436,"lon":127.0436793},{"province":"서울특별시","city":"도봉구","district":"창제4동","lat":37.6522276,"lon":127.0515994},{"province":"서울특별시","city":"도봉구","district":"창제3동","lat":37.6381278,"lon":127.0429556},{"province":"서울특별시","city":"도봉구","district":"창제2동","lat":37.6414033,"lon":127.0356387},{"province":"서울특별시","city":"도봉구","district":"창제1동","lat":37.6483046,"lon":127.0438683},{"province":"서울특별시","city":"강북구","district":null,"lat":37.6397819,"lon":127.0256135},{"province":"서울특별시","city":"강북구","district":"수유동","lat":37.6300865,"lon":127.0176014},{"province":"서울특별시","city":"강북구","district":"번동","lat":37.6378913,"lon":127.0288473},{"province":"서울특별시","city":"강북구","district":"인수동","lat":37.6415105,"lon":127.0106307},{"province":"서울특별시","city":"강북구","district":"우이동","lat":37.6479523,"lon":127.0118533},{"province":"서울특별시","city":"강북구","district":"수유3동","lat":37.638715,"lon":127.023125},{"province":"서울특별시","city":"강북구","district":"수유2동","lat":37.6447027,"lon":127.0198777},{"province":"서울특별시","city":"강북구","district":"수유1동","lat":37.6300865,"lon":127.0176014},{"province":"서울특별시","city":"강북구","district":"번3동","lat":37.625874,"lon":127.04665},{"province":"서울특별시","city":"강북구","district":"번2동","lat":37.6323588,"lon":127.0387953},{"province":"서울특별시","city":"강북구","district":"번1동","lat":37.6378913,"lon":127.0288473},{"province":"서울특별시","city":"강북구","district":"삼각산동","lat":37.6151568,"lon":127.0207209},{"province":"서울특별시","city":"강북구","district":"송천동","lat":37.618282,"lon":127.023838},{"province":"서울특별시","city":"강북구","district":"송중동","lat":37.616099,"lon":127.033738},{"province":"서울특별시","city":"강북구","district":"미아동","lat":37.6270736,"lon":127.0269791},{"province":"서울특별시","city":"강북구","district":"삼양동","lat":37.6250518,"lon":127.0197725},{"province":"서울특별시","city":"성북구","district":null,"lat":37.5894,"lon":127.016749},{"province":"서울특별시","city":"성북구","district":"장위동","lat":37.6141245,"lon":127.0437129},{"province":"서울특별시","city":"성북구","district":"상월곡동","lat":37.606099,"lon":127.046963},{"province":"서울특별시","city":"성북구","district":"하월곡동","lat":37.604407,"lon":127.0387},{"province":"서울특별시","city":"성북구","district":"길음동","lat":37.6104856,"lon":127.0193925},{"province":"서울특별시","city":"성북구","district":"정릉동","lat":37.6014512,"lon":127.0166146},{"province":"서울특별시","city":"성북구","district":"보문동3가","lat":37.5839321,"lon":127.0158125},{"province":"서울특별시","city":"성북구","district":"보문동2가","lat":37.5857523,"lon":127.018183},{"province":"서울특별시","city":"성북구","district":"보문동1가","lat":37.5864799,"lon":127.0196352},{"province":"서울특별시","city":"성북구","district":"보문동7가","lat":37.5797,"lon":127.02205},{"province":"서울특별시","city":"성북구","district":"보문동6가","lat":37.5804968,"lon":127.0188323},{"province":"서울특별시","city":"성북구","district":"보문동5가","lat":37.5824043,"lon":127.0200491},{"province":"서울특별시","city":"성북구","district":"보문동4가","lat":37.5828998,"lon":127.0213351},{"province":"서울특별시","city":"성북구","district":"안암동5가","lat":37.5888904,"lon":127.0301},{"province":"서울특별시","city":"성북구","district":"안암동4가","lat":37.580392,"lon":127.024663},{"province":"서울특별시","city":"성북구","district":"안암동3가","lat":37.583882,"lon":127.0231},{"province":"서울특별시","city":"성북구","district":"안암동2가","lat":37.586732,"lon":127.023},{"province":"서울특별시","city":"성북구","district":"안암동1가","lat":37.5886878,"lon":127.0220744},{"province":"서울특별시","city":"성북구","district":"동선동5가","lat":37.5962,"lon":127.0166},{"province":"서울특별시","city":"성북구","district":"동선동4가","lat":37.5952205,"lon":127.0186385},{"province":"서울특별시","city":"성북구","district":"동선동3가","lat":37.5939154,"lon":127.02045},{"province":"서울특별시","city":"성북구","district":"동선동2가","lat":37.5902487,"lon":127.020075},{"province":"서울특별시","city":"성북구","district":"동선동1가","lat":37.592307,"lon":127.0184},{"province":"서울특별시","city":"성북구","district":"삼선동5가","lat":37.5885487,"lon":127.015775},{"province":"서울특별시","city":"성북구","district":"삼선동4가","lat":37.5900064,"lon":127.0131352},{"province":"서울특별시","city":"성북구","district":"삼선동3가","lat":37.586557,"lon":127.013},{"province":"서울특별시","city":"성북구","district":"삼선동2가","lat":37.584,"lon":127.0114},{"province":"서울특별시","city":"성북구","district":"삼선동1가","lat":37.5845,"lon":127.0082},{"province":"서울특별시","city":"성북구","district":"동소문동7가","lat":37.5964,"lon":127.0142},{"province":"서울특별시","city":"성북구","district":"동소문동6가","lat":37.59359,"lon":127.014213},{"province":"서울특별시","city":"성북구","district":"동소문동5가","lat":37.591621,"lon":127.0153541},{"province":"서울특별시","city":"성북구","district":"동소문동4가","lat":37.5917387,"lon":127.0106235},{"province":"서울특별시","city":"성북구","district":"동소문동3가","lat":37.5903688,"lon":127.011221},{"province":"서울특별시","city":"성북구","district":"동소문동2가","lat":37.5887023,"lon":127.0082322},{"province":"서울특별시","city":"성북구","district":"동소문동1가","lat":37.590199,"lon":127.007163},{"province":"서울특별시","city":"성북구","district":"돈암동","lat":37.6034071,"lon":127.0263875},{"province":"서울특별시","city":"성북구","district":"성북동1가","lat":37.5894,"lon":127.0038},{"province":"서울특별시","city":"성북구","district":"석관동","lat":37.612957,"lon":127.061413},{"province":"서울특별시","city":"성북구","district":"장위제3동","lat":37.6165512,"lon":127.056603},{"province":"서울특별시","city":"성북구","district":"장위제2동","lat":37.6123899,"lon":127.0545206},{"province":"서울특별시","city":"성북구","district":"장위제1동","lat":37.6141245,"lon":127.0437129},{"province":"서울특별시","city":"성북구","district":"월곡제2동","lat":37.6057667,"lon":127.0478758},{"province":"서울특별시","city":"성북구","district":"월곡제1동","lat":37.6105472,"lon":127.0357574},{"province":"서울특별시","city":"성북구","district":"종암동","lat":37.5990075,"lon":127.0351572},{"province":"서울특별시","city":"성북구","district":"길음제2동","lat":37.6066647,"lon":127.0273155},{"province":"서울특별시","city":"성북구","district":"길음제1동","lat":37.6104856,"lon":127.0193925},{"province":"서울특별시","city":"성북구","district":"정릉제4동","lat":37.6133387,"lon":127.0069798},{"province":"서울특별시","city":"성북구","district":"정릉제3동","lat":37.6089578,"lon":127.004186},{"province":"서울특별시","city":"성북구","district":"정릉제2동","lat":37.6044729,"lon":127.0111047},{"province":"서울특별시","city":"성북구","district":"정릉제1동","lat":37.6014512,"lon":127.0166146},{"province":"서울특별시","city":"성북구","district":"보문동","lat":37.580383,"lon":127.0228},{"province":"서울특별시","city":"성북구","district":"안암동","lat":37.5858498,"lon":127.0213292},{"province":"서울특별시","city":"성북구","district":"돈암제2동","lat":37.598039,"lon":127.0105659},{"province":"서울특별시","city":"성북구","district":"돈암제1동","lat":37.6034071,"lon":127.0263875},{"province":"서울특별시","city":"성북구","district":"동선동","lat":37.5939824,"lon":127.0203666},{"province":"서울특별시","city":"성북구","district":"삼선동","lat":37.5908326,"lon":127.0146297},{"province":"서울특별시","city":"성북구","district":"성북동","lat":37.5911237,"lon":127.0032875},{"province":"서울특별시","city":"중랑구","district":null,"lat":37.6063242,"lon":127.0925842},{"province":"서울특별시","city":"중랑구","district":"신내동","lat":37.605882,"lon":127.099538},{"province":"서울특별시","city":"중랑구","district":"망우동","lat":37.600899,"lon":127.1073},{"province":"서울특별시","city":"중랑구","district":"묵동","lat":37.6123734,"lon":127.0784729},{"province":"서울특별시","city":"중랑구","district":"중화동","lat":37.6011745,"lon":127.080623},{"province":"서울특별시","city":"중랑구","district":"상봉동","lat":37.5998799,"lon":127.0872004},{"province":"서울특별시","city":"중랑구","district":"면목동","lat":37.5873592,"lon":127.0874227},{"province":"서울특별시","city":"중랑구","district":"신내2동","lat":37.6061896,"lon":127.0942306},{"province":"서울특별시","city":"중랑구","district":"신내1동","lat":37.605882,"lon":127.099538},{"province":"서울특별시","city":"중랑구","district":"망우제3동","lat":37.5919108,"lon":127.0949497},{"province":"서울특별시","city":"중랑구","district":"망우본동","lat":37.6005732,"lon":127.1014684},{"province":"서울특별시","city":"중랑구","district":"묵제2동","lat":37.6059528,"lon":127.0783313},{"province":"서울특별시","city":"중랑구","district":"묵제1동","lat":37.6123734,"lon":127.0784729},{"province":"서울특별시","city":"중랑구","district":"중화제2동","lat":37.5993838,"lon":127.0795427},{"province":"서울특별시","city":"중랑구","district":"중화제1동","lat":37.6011745,"lon":127.080623},{"province":"서울특별시","city":"중랑구","district":"상봉제2동","lat":37.592892,"lon":127.0808518},{"province":"서울특별시","city":"중랑구","district":"상봉제1동","lat":37.5998799,"lon":127.0872004},{"province":"서울특별시","city":"중랑구","district":"면목제7동","lat":37.5789945,"lon":127.0869854},{"province":"서울특별시","city":"중랑구","district":"면목본동","lat":37.5873592,"lon":127.0874227},{"province":"서울특별시","city":"중랑구","district":"면목제5동","lat":37.5857842,"lon":127.079511},{"province":"서울특별시","city":"중랑구","district":"면목제4동","lat":37.5746736,"lon":127.0855775},{"province":"서울특별시","city":"중랑구","district":"면목제2동","lat":37.589799,"lon":127.07905},{"province":"서울특별시","city":"동대문구","district":null,"lat":37.574524,"lon":127.03965},{"province":"서울특별시","city":"동대문구","district":"이문동","lat":37.597849,"lon":127.06545},{"province":"서울특별시","city":"동대문구","district":"휘경동","lat":37.592932,"lon":127.065725},{"province":"서울특별시","city":"동대문구","district":"장안동","lat":37.567842,"lon":127.066375},{"province":"서울특별시","city":"동대문구","district":"답십리동","lat":37.5717963,"lon":127.0512678},{"province":"서울특별시","city":"동대문구","district":"전농동","lat":37.5779984,"lon":127.0477575},{"province":"서울특별시","city":"동대문구","district":"용두동","lat":37.5758884,"lon":127.0372011},{"province":"서울특별시","city":"동대문구","district":"신설동","lat":37.5749343,"lon":127.0255251},{"province":"서울특별시","city":"동대문구","district":"이문제2동","lat":37.6033571,"lon":127.065075},{"province":"서울특별시","city":"동대문구","district":"이문제1동","lat":37.597849,"lon":127.06545},{"province":"서울특별시","city":"동대문구","district":"휘경제2동","lat":37.5902093,"lon":127.0685788},{"province":"서울특별시","city":"동대문구","district":"휘경제1동","lat":37.592932,"lon":127.065725},{"province":"서울특별시","city":"동대문구","district":"회기동","lat":37.5908083,"lon":127.0553132},{"province":"서울특별시","city":"동대문구","district":"청량리동","lat":37.5862586,"lon":127.0472767},{"province":"서울특별시","city":"동대문구","district":"장안제2동","lat":37.578483,"lon":127.0706},{"province":"서울특별시","city":"동대문구","district":"장안제1동","lat":37.567842,"lon":127.066375},{"province":"서울특별시","city":"동대문구","district":"답십리제2동","lat":37.567417,"lon":127.06125},{"province":"서울특별시","city":"동대문구","district":"답십리제1동","lat":37.5717963,"lon":127.0512678},{"province":"서울특별시","city":"동대문구","district":"전농제2동","lat":37.5781027,"lon":127.0600375},{"province":"서울특별시","city":"동대문구","district":"전농제1동","lat":37.5779984,"lon":127.0477575},{"province":"서울특별시","city":"동대문구","district":"제기동","lat":37.5831612,"lon":127.0378551},{"province":"서울특별시","city":"동대문구","district":"용신동","lat":37.5758185,"lon":127.0372169},{"province":"서울특별시","city":"광진구","district":null,"lat":37.538617,"lon":127.082375},{"province":"서울특별시","city":"광진구","district":"자양동","lat":37.534508,"lon":127.082438},{"province":"서울특별시","city":"광진구","district":"구의동","lat":37.5424917,"lon":127.0856756},{"province":"서울특별시","city":"광진구","district":"중곡동","lat":37.560675,"lon":127.080038},{"province":"서울특별시","city":"광진구","district":"구의제3동","lat":37.5380706,"lon":127.0920204},{"province":"서울특별시","city":"광진구","district":"구의제2동","lat":37.5472481,"lon":127.0899111},{"province":"서울특별시","city":"광진구","district":"구의제1동","lat":37.5424917,"lon":127.0856756},{"province":"서울특별시","city":"광진구","district":"자양제4동","lat":37.5341115,"lon":127.0662969},{"province":"서울특별시","city":"광진구","district":"자양제3동","lat":37.533842,"lon":127.072913},{"province":"서울특별시","city":"광진구","district":"자양제2동","lat":37.528825,"lon":127.084438},{"province":"서울특별시","city":"광진구","district":"자양제1동","lat":37.534508,"lon":127.082438},{"province":"서울특별시","city":"광진구","district":"광장동","lat":37.546892,"lon":127.103025},{"province":"서울특별시","city":"광진구","district":"능동","lat":37.5537803,"lon":127.0804994},{"province":"서울특별시","city":"광진구","district":"중곡제4동","lat":37.5590865,"lon":127.0894538},{"province":"서울특별시","city":"광진구","district":"중곡제3동","lat":37.5688084,"lon":127.0801736},{"province":"서울특별시","city":"광진구","district":"중곡제2동","lat":37.560308,"lon":127.081487},{"province":"서울특별시","city":"광진구","district":"중곡제1동","lat":37.560675,"lon":127.080038},{"province":"서울특별시","city":"광진구","district":"군자동","lat":37.5551217,"lon":127.0758373},{"province":"서울특별시","city":"광진구","district":"화양동","lat":37.5465421,"lon":127.0713152},{"province":"서울특별시","city":"성동구","district":null,"lat":37.563456,"lon":127.036821},{"province":"서울특별시","city":"성동구","district":"성수동2가","lat":37.539817,"lon":127.056888},{"province":"서울특별시","city":"성동구","district":"성수동1가","lat":37.542108,"lon":127.04965},{"province":"서울특별시","city":"성동구","district":"금호동4가","lat":37.5453855,"lon":127.0241155},{"province":"서울특별시","city":"성동구","district":"금호동3가","lat":37.5498,"lon":127.0193},{"province":"서울특별시","city":"성동구","district":"금호동2가","lat":37.553808,"lon":127.01885},{"province":"서울특별시","city":"성동구","district":"금호동1가","lat":37.553,"lon":127.0263},{"province":"서울특별시","city":"성동구","district":"행당동","lat":37.558567,"lon":127.036188},{"province":"서울특별시","city":"성동구","district":"도선동","lat":37.563542,"lon":127.033725},{"province":"서울특별시","city":"성동구","district":"홍익동","lat":37.56695,"lon":127.031975},{"province":"서울특별시","city":"성동구","district":"하왕십리동","lat":37.5641583,"lon":127.02875},{"province":"서울특별시","city":"성동구","district":"상왕십리동","lat":37.568375,"lon":127.0245375},{"province":"서울특별시","city":"성동구","district":"용답동","lat":37.5640618,"lon":127.0555515},{"province":"서울특별시","city":"성동구","district":"송정동","lat":37.5545217,"lon":127.0696004},{"province":"서울특별시","city":"성동구","district":"성수2가제3동","lat":37.5482223,"lon":127.0552645},{"province":"서울특별시","city":"성동구","district":"성수2가제1동","lat":37.5395907,"lon":127.0540659},{"province":"서울특별시","city":"성동구","district":"성수1가제2동","lat":37.5462991,"lon":127.0443325},{"province":"서울특별시","city":"성동구","district":"성수1가제1동","lat":37.542108,"lon":127.04965},{"province":"서울특별시","city":"성동구","district":"옥수동","lat":37.5436386,"lon":127.0134622},{"province":"서울특별시","city":"성동구","district":"금호4가동","lat":37.5471987,"lon":127.02241},{"province":"서울특별시","city":"성동구","district":"금호2.3가동","lat":37.5532922,"lon":127.0209487},{"province":"서울특별시","city":"성동구","district":"금호1가동","lat":37.5549008,"lon":127.0216354},{"province":"서울특별시","city":"성동구","district":"응봉동","lat":37.5531636,"lon":127.0334357},{"province":"서울특별시","city":"성동구","district":"행당제2동","lat":37.558208,"lon":127.02935},{"province":"서울특별시","city":"성동구","district":"행당제1동","lat":37.558567,"lon":127.036188},{"province":"서울특별시","city":"성동구","district":"사근동","lat":37.5614846,"lon":127.0453315},{"province":"서울특별시","city":"성동구","district":"마장동","lat":37.566325,"lon":127.045388},{"province":"서울특별시","city":"성동구","district":"왕십리도선동","lat":37.5678257,"lon":127.0255501},{"province":"서울특별시","city":"성동구","district":"왕십리제2동","lat":37.561108,"lon":127.030488},{"province":"서울특별시","city":"용산구","district":null,"lat":37.532527,"lon":126.99049},{"province":"서울특별시","city":"용산구","district":"용산동6가","lat":37.5169,"lon":126.984},{"province":"서울특별시","city":"용산구","district":"주성동","lat":37.5214781,"lon":126.9995663},{"province":"서울특별시","city":"용산구","district":"동빙고동","lat":37.5237,"lon":126.9957},{"province":"서울특별시","city":"용산구","district":"이태원동","lat":37.5325225,"lon":126.9950384},{"province":"서울특별시","city":"용산구","district":"이촌동","lat":37.5214167,"lon":126.9732},{"province":"서울특별시","city":"용산구","district":"한강로3가","lat":37.5278,"lon":126.9602},{"province":"서울특별시","city":"용산구","district":"용산동5가","lat":37.5257,"lon":126.9747},{"province":"서울특별시","city":"용산구","district":"용산동3가","lat":37.532,"lon":126.9768},{"province":"서울특별시","city":"용산구","district":"한강로2가","lat":37.5316667,"lon":126.968725},{"province":"서울특별시","city":"용산구","district":"한강로1가","lat":37.5362,"lon":126.973488},{"province":"서울특별시","city":"용산구","district":"신계동","lat":37.5358,"lon":126.9667},{"province":"서울특별시","city":"용산구","district":"문배동","lat":37.537,"lon":126.969088},{"province":"서울특별시","city":"용산구","district":"도원동","lat":37.5388,"lon":126.9561},{"province":"서울특별시","city":"용산구","district":"원효로4가","lat":37.5328,"lon":126.9504},{"province":"서울특별시","city":"용산구","district":"원효로3가","lat":37.5344,"lon":126.9581},{"province":"서울특별시","city":"용산구","district":"청암동","lat":37.5344784,"lon":126.9466319},{"province":"서울특별시","city":"용산구","district":"산천동","lat":37.5353,"lon":126.9513},{"province":"서울특별시","city":"용산구","district":"신창동","lat":37.5358417,"lon":126.9547},{"province":"서울특별시","city":"용산구","district":"원효로2가","lat":37.536775,"lon":126.963225},{"province":"서울특별시","city":"용산구","district":"원효로1가","lat":37.5398,"lon":126.9673625},{"province":"서울특별시","city":"용산구","district":"청파동3가","lat":37.5432,"lon":126.9668},{"province":"서울특별시","city":"용산구","district":"청파동2가","lat":37.5462,"lon":126.9667},{"province":"서울특별시","city":"용산구","district":"청파동1가","lat":37.5488,"lon":126.9674},{"province":"서울특별시","city":"용산구","district":"서계동","lat":37.5524583,"lon":126.9664},{"province":"서울특별시","city":"용산구","district":"동자동","lat":37.5520533,"lon":126.9723999},{"province":"서울특별시","city":"용산구","district":"용산동1가","lat":37.5401,"lon":126.977},{"province":"서울특별시","city":"용산구","district":"갈월동","lat":37.5425333,"lon":126.9717625},{"province":"서울특별시","city":"용산구","district":"용산동4가","lat":37.5306,"lon":126.9854},{"province":"서울특별시","city":"용산구","district":"용산동2가","lat":37.54295,"lon":126.98405},{"province":"서울특별시","city":"용산구","district":"보광동","lat":37.5263257,"lon":127.0001818},{"province":"서울특별시","city":"용산구","district":"서빙고동","lat":37.520458,"lon":126.994663},{"province":"서울특별시","city":"용산구","district":"한남동","lat":37.53455,"lon":127.0005},{"province":"서울특별시","city":"용산구","district":"이태원제2동","lat":37.5418962,"lon":126.9901481},{"province":"서울특별시","city":"용산구","district":"이태원제1동","lat":37.5325225,"lon":126.9950384},{"province":"서울특별시","city":"용산구","district":"이촌제2동","lat":37.5262575,"lon":126.9547071},{"province":"서울특별시","city":"용산구","district":"이촌제1동","lat":37.5214167,"lon":126.9732},{"province":"서울특별시","city":"용산구","district":"한강로동","lat":37.5281071,"lon":126.9692332},{"province":"서울특별시","city":"용산구","district":"용문동","lat":37.5389,"lon":126.957562},{"province":"서울특별시","city":"용산구","district":"효창동","lat":37.5424569,"lon":126.9618498},{"province":"서울특별시","city":"용산구","district":"원효로제2동","lat":37.53435,"lon":126.951538},{"province":"서울특별시","city":"용산구","district":"원효로제1동","lat":37.5372185,"lon":126.9676811},{"province":"서울특별시","city":"용산구","district":"청파동","lat":37.5488,"lon":126.9674},{"province":"서울특별시","city":"용산구","district":"남영동","lat":37.5457586,"lon":126.9748403},{"province":"서울특별시","city":"용산구","district":"용산2가동","lat":37.5461327,"lon":126.9855777},{"province":"서울특별시","city":"용산구","district":"후암동","lat":37.5486375,"lon":126.9781344},{"province":"서울특별시","city":"중구","district":null,"lat":37.563843,"lon":126.997602},{"province":"서울특별시","city":"중구","district":"만리동2가","lat":37.5544,"lon":126.964},{"province":"서울특별시","city":"중구","district":"만리동1가","lat":37.555917,"lon":126.967263},{"province":"서울특별시","city":"중구","district":"의주로2가","lat":37.5607179,"lon":126.9695899},{"province":"서울특별시","city":"중구","district":"충정로1가","lat":37.5664822,"lon":126.9682257},{"province":"서울특별시","city":"중구","district":"의주로1가","lat":37.5640069,"lon":126.9684812},{"province":"서울특별시","city":"중구","district":"순화동","lat":37.562758,"lon":126.970438},{"province":"서울특별시","city":"중구","district":"정동","lat":37.5664,"lon":126.972925},{"province":"서울특별시","city":"중구","district":"서소문동","lat":37.563275,"lon":126.973425},{"province":"서울특별시","city":"중구","district":"무학동","lat":37.5643562,"lon":127.0152552},{"province":"서울특별시","city":"중구","district":"흥인동","lat":37.567675,"lon":127.016463},{"province":"서울특별시","city":"중구","district":"저동2가","lat":37.564275,"lon":126.9895125},{"province":"서울특별시","city":"중구","district":"인현동1가","lat":37.5646,"lon":126.9944},{"province":"서울특별시","city":"중구","district":"초동","lat":37.56465,"lon":126.992325},{"province":"서울특별시","city":"중구","district":"충무로3가","lat":37.5623684,"lon":126.9917138},{"province":"서울특별시","city":"중구","district":"산림동","lat":37.5676,"lon":126.9957},{"province":"서울특별시","city":"중구","district":"입정동","lat":37.5678003,"lon":126.9928911},{"province":"서울특별시","city":"중구","district":"을지로3가","lat":37.5662167,"lon":126.99215},{"province":"서울특별시","city":"중구","district":"오장동","lat":37.564875,"lon":127.0007125},{"province":"서울특별시","city":"중구","district":"방산동","lat":37.5687,"lon":127.0032},{"province":"서울특별시","city":"중구","district":"주교동","lat":37.5682512,"lon":126.9993441},{"province":"서울특별시","city":"중구","district":"을지로5가","lat":37.5665167,"lon":127.0026625},{"province":"서울특별시","city":"중구","district":"을지로4가","lat":37.5663,"lon":126.9968},{"province":"서울특별시","city":"중구","district":"을지로7가","lat":37.566325,"lon":127.010437},{"province":"서울특별시","city":"중구","district":"을지로6가","lat":37.567717,"lon":127.006938},{"province":"서울특별시","city":"중구","district":"쌍림동","lat":37.5638,"lon":127.0041},{"province":"서울특별시","city":"중구","district":"광희동2가","lat":37.5640583,"lon":127.0082125},{"province":"서울특별시","city":"중구","district":"광희동1가","lat":37.565,"lon":127.0051},{"province":"서울특별시","city":"중구","district":"장충동2가","lat":37.5555167,"lon":127.001075},{"province":"서울특별시","city":"중구","district":"장충동1가","lat":37.560758,"lon":127.007688},{"province":"서울특별시","city":"중구","district":"예장동","lat":37.5553,"lon":126.9898},{"province":"서울특별시","city":"중구","district":"주자동","lat":37.5606415,"lon":126.9893712},{"province":"서울특별시","city":"중구","district":"남학동","lat":37.5605568,"lon":126.9907972},{"province":"서울특별시","city":"중구","district":"필동3가","lat":37.5584979,"lon":126.9969899},{"province":"서울특별시","city":"중구","district":"필동2가","lat":37.5586,"lon":126.9944},{"province":"서울특별시","city":"중구","district":"필동1가","lat":37.5607583,"lon":126.9924375},{"province":"서울특별시","city":"중구","district":"묵정동","lat":37.561308,"lon":127.000525},{"province":"서울특별시","city":"중구","district":"예관동","lat":37.5642168,"lon":126.9981863},{"province":"서울특별시","city":"중구","district":"인현동2가","lat":37.564125,"lon":126.996238},{"province":"서울특별시","city":"중구","district":"충무로5가","lat":37.5628253,"lon":126.9996118},{"province":"서울특별시","city":"중구","district":"충무로4가","lat":37.5622333,"lon":126.995875},{"province":"서울특별시","city":"중구","district":"저동1가","lat":37.5644112,"lon":126.9877732},{"province":"서울특별시","city":"중구","district":"남산동3가","lat":37.5601543,"lon":126.9874195},{"province":"서울특별시","city":"중구","district":"남산동2가","lat":37.558333,"lon":126.9858},{"province":"서울특별시","city":"중구","district":"남산동1가","lat":37.5593291,"lon":126.9845659},{"province":"서울특별시","city":"중구","district":"명동2가","lat":37.562667,"lon":126.985175},{"province":"서울특별시","city":"중구","district":"명동1가","lat":37.5642845,"lon":126.9846307},{"province":"서울특별시","city":"중구","district":"충무로2가","lat":37.5614609,"lon":126.9863083},{"province":"서울특별시","city":"중구","district":"충무로1가","lat":37.5610083,"lon":126.9823375},{"province":"서울특별시","city":"중구","district":"회현동3가","lat":37.5601499,"lon":126.9840453},{"province":"서울특별시","city":"중구","district":"회현동2가","lat":37.5587441,"lon":126.9829024},{"province":"서울특별시","city":"중구","district":"회현동1가","lat":37.5572,"lon":126.9813},{"province":"서울특별시","city":"중구","district":"봉래동2가","lat":37.556575,"lon":126.970975},{"province":"서울특별시","city":"중구","district":"봉래동1가","lat":37.5590814,"lon":126.9727409},{"province":"서울특별시","city":"중구","district":"남대문로5가","lat":37.5560917,"lon":126.975},{"province":"서울특별시","city":"중구","district":"남대문로4가","lat":37.5605942,"lon":126.975609},{"province":"서울특별시","city":"중구","district":"남대문로3가","lat":37.5616819,"lon":126.9795599},{"province":"서울특별시","city":"중구","district":"남대문로2가","lat":37.5639365,"lon":126.9820863},{"province":"서울특별시","city":"중구","district":"태평로2가","lat":37.5629892,"lon":126.9763563},{"province":"서울특별시","city":"중구","district":"북창동","lat":37.5623,"lon":126.9783},{"province":"서울특별시","city":"중구","district":"남창동","lat":37.5581,"lon":126.977437},{"province":"서울특별시","city":"중구","district":"수표동","lat":37.5671417,"lon":126.9890375},{"province":"서울특별시","city":"중구","district":"장교동","lat":37.5674312,"lon":126.9869527},{"province":"서울특별시","city":"중구","district":"수하동","lat":37.5672663,"lon":126.9846085},{"province":"서울특별시","city":"중구","district":"삼각동","lat":37.5680796,"lon":126.9842187},{"province":"서울특별시","city":"중구","district":"남대문로1가","lat":37.5675621,"lon":126.9828284},{"province":"서울특별시","city":"중구","district":"을지로2가","lat":37.56585,"lon":126.985638},{"province":"서울특별시","city":"중구","district":"을지로1가","lat":37.5659693,"lon":126.9805525},{"province":"서울특별시","city":"중구","district":"태평로1가","lat":37.5676845,"lon":126.9772484},{"province":"서울특별시","city":"중구","district":"다동","lat":37.568133,"lon":126.980913},{"province":"서울특별시","city":"중구","district":"무교동","lat":37.568139,"lon":126.9789777},{"province":"서울특별시","city":"중구","district":"중림동","lat":37.5548629,"lon":126.9644863},{"province":"서울특별시","city":"중구","district":"황학동","lat":37.5673446,"lon":127.0212812},{"province":"서울특별시","city":"중구","district":"동화동","lat":37.5600562,"lon":127.0194239},{"province":"서울특별시","city":"중구","district":"신당제5동","lat":37.565142,"lon":127.02185},{"province":"서울특별시","city":"중구","district":"청구동","lat":37.557083,"lon":127.014687},{"province":"서울특별시","city":"중구","district":"약수동","lat":37.552479,"lon":127.0090022},{"province":"서울특별시","city":"중구","district":"다산동","lat":37.5542861,"lon":127.0082322},{"province":"서울특별시","city":"중구","district":"신당동","lat":37.5620973,"lon":127.0145478},{"province":"서울특별시","city":"중구","district":"을지로동","lat":37.5667163,"lon":126.9913342},{"province":"서울특별시","city":"중구","district":"광희동","lat":37.564494,"lon":127.0050623},{"province":"서울특별시","city":"중구","district":"장충동","lat":37.5618946,"lon":127.0078812},{"province":"서울특별시","city":"중구","district":"필동","lat":37.5601529,"lon":126.9955699},{"province":"서울특별시","city":"중구","district":"명동","lat":37.560042,"lon":126.98585},{"province":"서울특별시","city":"중구","district":"소공동","lat":37.562442,"lon":126.977025},{"province":"서울특별시","city":"종로구","district":null,"lat":37.5735207,"lon":126.9788345},{"province":"서울특별시","city":"종로구","district":"신영동","lat":37.60294,"lon":126.9621},{"province":"서울특별시","city":"종로구","district":"홍지동","lat":37.6006,"lon":126.9564},{"province":"서울특별시","city":"종로구","district":"구기동","lat":37.6179,"lon":126.9574},{"province":"서울특별시","city":"종로구","district":"행촌동","lat":37.573608,"lon":126.9621},{"province":"서울특별시","city":"종로구","district":"교북동","lat":37.5715202,"lon":126.9614257},{"province":"서울특별시","city":"종로구","district":"홍파동","lat":37.571132,"lon":126.9639538},{"province":"서울특별시","city":"종로구","district":"송월동","lat":37.5700618,"lon":126.9651864},{"province":"서울특별시","city":"종로구","district":"평동","lat":37.567967,"lon":126.9668},{"province":"서울특별시","city":"종로구","district":"숭인동","lat":37.5778049,"lon":127.0156274},{"province":"서울특별시","city":"종로구","district":"창신동","lat":37.570758,"lon":127.016363},{"province":"서울특별시","city":"종로구","district":"명륜3가","lat":37.5875,"lon":126.9931},{"province":"서울특별시","city":"종로구","district":"명륜4가","lat":37.582142,"lon":126.9998},{"province":"서울특별시","city":"종로구","district":"명륜2가","lat":37.5846,"lon":126.9988},{"province":"서울특별시","city":"종로구","district":"명륜1가","lat":37.5891,"lon":126.9975},{"province":"서울특별시","city":"종로구","district":"동숭동","lat":37.5813,"lon":127.005},{"province":"서울특별시","city":"종로구","district":"충신동","lat":37.574842,"lon":127.006125},{"province":"서울특별시","city":"종로구","district":"연건동","lat":37.5786,"lon":126.9995},{"province":"서울특별시","city":"종로구","district":"종로6가","lat":37.5719,"lon":127.0076},{"province":"서울특별시","city":"종로구","district":"종로5가","lat":37.570633,"lon":127.0036},{"province":"서울특별시","city":"종로구","district":"효제동","lat":37.57295,"lon":127.0030375},{"province":"서울특별시","city":"종로구","district":"종로4가","lat":37.5706536,"lon":126.9979211},{"province":"서울특별시","city":"종로구","district":"연지동","lat":37.5737,"lon":127.0002},{"province":"서울특별시","city":"종로구","district":"원남동","lat":37.5754583,"lon":126.9975625},{"province":"서울특별시","city":"종로구","district":"예지동","lat":37.5696187,"lon":126.9982763},{"province":"서울특별시","city":"종로구","district":"인의동","lat":37.5725,"lon":126.9979},{"province":"서울특별시","city":"종로구","district":"종로3가","lat":37.57039,"lon":126.9923214},{"province":"서울특별시","city":"종로구","district":"관수동","lat":37.5691,"lon":126.9906},{"province":"서울특별시","city":"종로구","district":"장사동","lat":37.56922,"lon":126.9940122},{"province":"서울특별시","city":"종로구","district":"돈의동","lat":37.5719634,"lon":126.9907097},{"province":"서울특별시","city":"종로구","district":"봉익동","lat":37.5721762,"lon":126.992966},{"province":"서울특별시","city":"종로구","district":"묘동","lat":37.5724175,"lon":126.9917106},{"province":"서울특별시","city":"종로구","district":"훈정동","lat":37.5742,"lon":126.9943},{"province":"서울특별시","city":"종로구","district":"원서동","lat":37.5839056,"lon":126.9882311},{"province":"서울특별시","city":"종로구","district":"계동","lat":37.5804,"lon":126.987},{"province":"서울특별시","city":"종로구","district":"재동","lat":37.5781,"lon":126.985125},{"province":"서울특별시","city":"종로구","district":"송현동","lat":37.5768,"lon":126.9817},{"province":"서울특별시","city":"종로구","district":"사간동","lat":37.5772644,"lon":126.9803681},{"province":"서울특별시","city":"종로구","district":"화동","lat":37.5806,"lon":126.9828},{"province":"서울특별시","city":"종로구","district":"소격동","lat":37.5795,"lon":126.980775},{"province":"서울특별시","city":"종로구","district":"안국동","lat":37.5773,"lon":126.9829},{"province":"서울특별시","city":"종로구","district":"팔판동","lat":37.582817,"lon":126.9804},{"province":"서울특별시","city":"종로구","district":"종로2가","lat":37.5704398,"lon":126.9869027},{"province":"서울특별시","city":"종로구","district":"낙원동","lat":37.5725,"lon":126.9885},{"province":"서울특별시","city":"종로구","district":"인사동","lat":37.5717,"lon":126.986},{"province":"서울특별시","city":"종로구","district":"관철동","lat":37.5691073,"lon":126.9859731},{"province":"서울특별시","city":"종로구","district":"경운동","lat":37.575067,"lon":126.98595},{"province":"서울특별시","city":"종로구","district":"익선동","lat":37.574567,"lon":126.9894},{"province":"서울특별시","city":"종로구","district":"운니동","lat":37.5764,"lon":126.9883},{"province":"서울특별시","city":"종로구","district":"권농동","lat":37.5775049,"lon":126.991734},{"province":"서울특별시","city":"종로구","district":"와룡동","lat":37.582,"lon":126.993},{"province":"서울특별시","city":"종로구","district":"견지동","lat":37.573504,"lon":126.9829808},{"province":"서울특별시","city":"종로구","district":"관훈동","lat":37.573917,"lon":126.98465},{"province":"서울특별시","city":"종로구","district":"공평동","lat":37.5711,"lon":126.9828},{"province":"서울특별시","city":"종로구","district":"종로1가","lat":37.5704148,"lon":126.9796832},{"province":"서울특별시","city":"종로구","district":"중학동","lat":37.5752943,"lon":126.9796457},{"province":"서울특별시","city":"종로구","district":"수송동","lat":37.5737,"lon":126.9806},{"province":"서울특별시","city":"종로구","district":"서린동","lat":37.5695043,"lon":126.9803876},{"province":"서울특별시","city":"종로구","district":"청진동","lat":37.5714325,"lon":126.980147},{"province":"서울특별시","city":"종로구","district":"신문로2가","lat":37.570792,"lon":126.968813},{"province":"서울특별시","city":"종로구","district":"신문로1가","lat":37.5701719,"lon":126.9738898},{"province":"서울특별시","city":"종로구","district":"세종로","lat":37.5802853,"lon":126.9767572},{"province":"서울특별시","city":"종로구","district":"내수동","lat":37.572942,"lon":126.9722},{"province":"서울특별시","city":"종로구","district":"당주동","lat":37.5715696,"lon":126.9739817},{"province":"서울특별시","city":"종로구","district":"도렴동","lat":37.5731046,"lon":126.974727},{"province":"서울특별시","city":"종로구","district":"내자동","lat":37.5754,"lon":126.9716},{"province":"서울특별시","city":"종로구","district":"필운동","lat":37.5772807,"lon":126.9681133},{"province":"서울특별시","city":"종로구","district":"체부동","lat":37.578,"lon":126.9707},{"province":"서울특별시","city":"종로구","district":"옥인동","lat":37.5836,"lon":126.9625},{"province":"서울특별시","city":"종로구","district":"누하동","lat":37.579183,"lon":126.968175},{"province":"서울특별시","city":"종로구","district":"누상동","lat":37.5804,"lon":126.9623},{"province":"서울특별시","city":"종로구","district":"통인동","lat":37.5801426,"lon":126.9701874},{"province":"서울특별시","city":"종로구","district":"적선동","lat":37.5753026,"lon":126.9737589},{"province":"서울특별시","city":"종로구","district":"통의동","lat":37.5784,"lon":126.972638},{"province":"서울특별시","city":"종로구","district":"창성동","lat":37.5806,"lon":126.9721},{"province":"서울특별시","city":"종로구","district":"효자동","lat":37.5826488,"lon":126.9719206},{"province":"서울특별시","city":"종로구","district":"궁정동","lat":37.5846792,"lon":126.9726742},{"province":"서울특별시","city":"종로구","district":"신교동","lat":37.5845,"lon":126.9678},{"province":"서울특별시","city":"종로구","district":"청운동","lat":37.5891866,"lon":126.9692917},{"province":"서울특별시","city":"종로구","district":"숭인제2동","lat":37.574867,"lon":127.019988},{"province":"서울특별시","city":"종로구","district":"숭인제1동","lat":37.5778049,"lon":127.0156274},{"province":"서울특별시","city":"종로구","district":"창신제3동","lat":37.5779055,"lon":127.0150474},{"province":"서울특별시","city":"종로구","district":"창신제2동","lat":37.574458,"lon":127.010863},{"province":"서울특별시","city":"종로구","district":"창신제1동","lat":37.570758,"lon":127.016363},{"province":"서울특별시","city":"종로구","district":"혜화동","lat":37.5869186,"lon":127.0005764},{"province":"서울특별시","city":"종로구","district":"이화동","lat":37.577008,"lon":127.004338},{"province":"서울특별시","city":"종로구","district":"종로5.6가동","lat":37.5720148,"lon":127.0050414},{"province":"서울특별시","city":"종로구","district":"종로1.2.3.4가동","lat":37.574461,"lon":126.9902618},{"province":"서울특별시","city":"종로구","district":"가회동","lat":37.5800784,"lon":126.9847995},{"province":"서울특별시","city":"종로구","district":"교남동","lat":37.5719391,"lon":126.9619364},{"province":"서울특별시","city":"종로구","district":"무악동","lat":37.5760032,"lon":126.958148},{"province":"서울특별시","city":"종로구","district":"평창동","lat":37.6063166,"lon":126.9681871},{"province":"서울특별시","city":"종로구","district":"부암동","lat":37.5924785,"lon":126.9641},{"province":"서울특별시","city":"종로구","district":"삼청동","lat":37.5850126,"lon":126.981836},{"province":"서울특별시","city":"종로구","district":"사직동","lat":37.576196,"lon":126.9688397},{"province":"서울특별시","city":"종로구","district":"청운효자동","lat":37.5841367,"lon":126.9706519},{"province":"강원도","city":null,"district":null,"lat":37.8603672,"lon":128.3115261},{"province":"강원도","city":"양양군","district":null,"lat":38.075493,"lon":128.619145},{"province":"강원도","city":"양양군","district":"강현면","lat":38.14994,"lon":128.607587},{"province":"강원도","city":"양양군","district":"강현면","lat":38.1176,"lon":128.5235},{"province":"강원도","city":"양양군","district":"강현면","lat":38.1217321,"lon":128.5968125},{"province":"강원도","city":"양양군","district":"강현면","lat":38.1158,"lon":128.6292},{"province":"강원도","city":"양양군","district":"강현면","lat":38.124,"lon":128.6256},{"province":"강원도","city":"양양군","district":"강현면","lat":38.138282,"lon":128.59395},{"province":"강원도","city":"양양군","district":"강현면","lat":38.129,"lon":128.6103},{"province":"강원도","city":"양양군","district":"강현면","lat":38.1416,"lon":128.6082},{"province":"강원도","city":"양양군","district":"강현면","lat":38.1204,"lon":128.6115},{"province":"강원도","city":"양양군","district":"강현면","lat":38.1178,"lon":128.6207},{"province":"강원도","city":"양양군","district":"강현면","lat":38.1177,"lon":128.6077},{"province":"강원도","city":"양양군","district":"강현면","lat":38.1133654,"lon":128.584875},{"province":"강원도","city":"양양군","district":"강현면","lat":38.1076,"lon":128.6005},{"province":"강원도","city":"양양군","district":"강현면","lat":38.1326,"lon":128.5737},{"province":"강원도","city":"양양군","district":"강현면","lat":38.1212,"lon":128.5853},{"province":"강원도","city":"양양군","district":"강현면","lat":38.1262,"lon":128.5739},{"province":"강원도","city":"양양군","district":"강현면","lat":38.1274,"lon":128.5143},{"province":"강원도","city":"양양군","district":"강현면","lat":38.1261,"lon":128.5609},{"province":"강원도","city":"양양군","district":"강현면","lat":38.156,"lon":128.605},{"province":"강원도","city":"양양군","district":"강현면","lat":38.1529059,"lon":128.5897867},{"province":"강원도","city":"양양군","district":"강현면","lat":38.1489,"lon":128.5758},{"province":"강원도","city":"양양군","district":"강현면","lat":38.14,"lon":128.5696},{"province":"강원도","city":"양양군","district":"강현면","lat":38.1446,"lon":128.5493},{"province":"강원도","city":"양양군","district":"현남면","lat":37.969226,"lon":128.759488},{"province":"강원도","city":"양양군","district":"현남면","lat":37.9728,"lon":128.7434},{"province":"강원도","city":"양양군","district":"현남면","lat":37.9749,"lon":128.7518},{"province":"강원도","city":"양양군","district":"현남면","lat":37.9205,"lon":128.7483},{"province":"강원도","city":"양양군","district":"현남면","lat":37.94,"lon":128.7786},{"province":"강원도","city":"양양군","district":"현남면","lat":37.9223,"lon":128.7666},{"province":"강원도","city":"양양군","district":"현남면","lat":37.9185,"lon":128.802},{"province":"강원도","city":"양양군","district":"현남면","lat":37.9203,"lon":128.7948},{"province":"강원도","city":"양양군","district":"현남면","lat":37.9294,"lon":128.787},{"province":"강원도","city":"양양군","district":"현남면","lat":37.9208,"lon":128.7818},{"province":"강원도","city":"양양군","district":"현남면","lat":37.9697,"lon":128.755},{"province":"강원도","city":"양양군","district":"현남면","lat":37.9172,"lon":128.717},{"province":"강원도","city":"양양군","district":"현남면","lat":37.9418,"lon":128.7095},{"province":"강원도","city":"양양군","district":"현남면","lat":37.9373,"lon":128.7475},{"province":"강원도","city":"양양군","district":"현남면","lat":37.9448735,"lon":128.747289},{"province":"강원도","city":"양양군","district":"현남면","lat":37.9461,"lon":128.7651},{"province":"강원도","city":"양양군","district":"현남면","lat":37.9577,"lon":128.7651},{"province":"강원도","city":"양양군","district":"현남면","lat":37.9659,"lon":128.723},{"province":"강원도","city":"양양군","district":"현남면","lat":37.9718,"lon":128.7598},{"province":"강원도","city":"양양군","district":"현남면","lat":37.9797987,"lon":128.7581013},{"province":"강원도","city":"양양군","district":"현남면","lat":37.9841,"lon":128.7397},{"province":"강원도","city":"양양군","district":"현남면","lat":37.9568,"lon":128.745},{"province":"강원도","city":"양양군","district":"현북면","lat":38.0189544,"lon":128.7231145},{"province":"강원도","city":"양양군","district":"현북면","lat":37.8976,"lon":128.6061},{"province":"강원도","city":"양양군","district":"현북면","lat":37.951401,"lon":128.6122},{"province":"강원도","city":"양양군","district":"현북면","lat":37.9804,"lon":128.6546},{"province":"강원도","city":"양양군","district":"현북면","lat":37.927601,"lon":128.66555},{"province":"강원도","city":"양양군","district":"현북면","lat":38.0155,"lon":128.7199},{"province":"강원도","city":"양양군","district":"현북면","lat":38.0277,"lon":128.7077},{"province":"강원도","city":"양양군","district":"현북면","lat":38.011,"lon":128.6982},{"province":"강원도","city":"양양군","district":"현북면","lat":37.9768,"lon":128.6944},{"province":"강원도","city":"양양군","district":"현북면","lat":38.014,"lon":128.676},{"province":"강원도","city":"양양군","district":"현북면","lat":38.0019,"lon":128.6204},{"province":"강원도","city":"양양군","district":"현북면","lat":37.9861,"lon":128.6257},{"province":"강원도","city":"양양군","district":"현북면","lat":37.9843,"lon":128.6751},{"province":"강원도","city":"양양군","district":"현북면","lat":38.0106,"lon":128.7263},{"province":"강원도","city":"양양군","district":"현북면","lat":37.9906,"lon":128.7202},{"province":"강원도","city":"양양군","district":"손양면","lat":38.060533,"lon":128.6411},{"province":"강원도","city":"양양군","district":"손양면","lat":38.038025,"lon":128.639025},{"province":"강원도","city":"양양군","district":"손양면","lat":38.0481,"lon":128.6552},{"province":"강원도","city":"양양군","district":"손양면","lat":38.0414,"lon":128.6868},{"province":"강원도","city":"양양군","district":"손양면","lat":38.0362,"lon":128.6974},{"province":"강원도","city":"양양군","district":"손양면","lat":38.025,"lon":128.6531},{"province":"강원도","city":"양양군","district":"손양면","lat":38.0758,"lon":128.6378},{"province":"강원도","city":"양양군","district":"손양면","lat":38.0763,"lon":128.6663},{"province":"강원도","city":"양양군","district":"손양면","lat":38.0599,"lon":128.6414375},{"province":"강원도","city":"양양군","district":"손양면","lat":38.0446,"lon":128.6247},{"province":"강원도","city":"양양군","district":"손양면","lat":38.0673,"lon":128.6367},{"province":"강원도","city":"양양군","district":"손양면","lat":38.048458,"lon":128.645938},{"province":"강원도","city":"양양군","district":"손양면","lat":38.0768,"lon":128.6725},{"province":"강원도","city":"양양군","district":"손양면","lat":38.0082,"lon":128.6399},{"province":"강원도","city":"양양군","district":"손양면","lat":38.0302,"lon":128.671},{"province":"강원도","city":"양양군","district":"손양면","lat":38.0417,"lon":128.6652},{"province":"강원도","city":"양양군","district":"손양면","lat":38.077,"lon":128.6473},{"province":"강원도","city":"양양군","district":"손양면","lat":38.069575,"lon":128.65655},{"province":"강원도","city":"양양군","district":"손양면","lat":38.0254,"lon":128.6332},{"province":"강원도","city":"양양군","district":"손양면","lat":38.0866821,"lon":128.663775},{"province":"강원도","city":"양양군","district":"손양면","lat":38.0947,"lon":128.6499},{"province":"강원도","city":"양양군","district":"손양면","lat":38.0886,"lon":128.6548},{"province":"강원도","city":"양양군","district":"손양면","lat":38.083,"lon":128.653},{"province":"강원도","city":"양양군","district":"손양면","lat":38.0562,"lon":128.6716},{"province":"강원도","city":"양양군","district":"서면","lat":38.0714747,"lon":128.5853674},{"province":"강원도","city":"양양군","district":"서면","lat":38.038,"lon":128.5416},{"province":"강원도","city":"양양군","district":"서면","lat":38.0668,"lon":128.5251},{"province":"강원도","city":"양양군","district":"서면","lat":38.0534,"lon":128.5479},{"province":"강원도","city":"양양군","district":"서면","lat":38.0523,"lon":128.5153},{"province":"강원도","city":"양양군","district":"서면","lat":37.9138,"lon":128.5513},{"province":"강원도","city":"양양군","district":"서면","lat":37.9694,"lon":128.5419},{"province":"강원도","city":"양양군","district":"서면","lat":38.0153,"lon":128.5299},{"province":"강원도","city":"양양군","district":"서면","lat":38.0849,"lon":128.4588},{"province":"강원도","city":"양양군","district":"서면","lat":38.0823,"lon":128.523},{"province":"강원도","city":"양양군","district":"서면","lat":38.0898,"lon":128.5671},{"province":"강원도","city":"양양군","district":"서면","lat":38.0933,"lon":128.5407},{"province":"강원도","city":"양양군","district":"서면","lat":38.0661,"lon":128.5818},{"province":"강원도","city":"양양군","district":"서면","lat":38.0579,"lon":128.5921},{"province":"강원도","city":"양양군","district":"서면","lat":38.0673133,"lon":128.6085423},{"province":"강원도","city":"양양군","district":"서면","lat":38.056914,"lon":128.604074},{"province":"강원도","city":"양양군","district":"서면","lat":38.0063,"lon":128.5985},{"province":"강원도","city":"양양군","district":"서면","lat":38.0157,"lon":128.5638},{"province":"강원도","city":"양양군","district":"서면","lat":38.067,"lon":128.5614},{"province":"강원도","city":"양양군","district":"서면","lat":38.027208,"lon":128.5906},{"province":"강원도","city":"양양군","district":"서면","lat":37.9117,"lon":128.5066},{"province":"강원도","city":"양양군","district":"양양읍","lat":38.080658,"lon":128.624},{"province":"강원도","city":"양양군","district":"양양읍","lat":38.103,"lon":128.5577},{"province":"강원도","city":"양양군","district":"양양읍","lat":38.0905,"lon":128.5842},{"province":"강원도","city":"양양군","district":"양양읍","lat":38.0766,"lon":128.6008},{"province":"강원도","city":"양양군","district":"양양읍","lat":38.0829,"lon":128.6065},{"province":"강원도","city":"양양군","district":"양양읍","lat":38.0726667,"lon":128.614675},{"province":"강원도","city":"양양군","district":"양양읍","lat":38.0974,"lon":128.602},{"province":"강원도","city":"양양군","district":"양양읍","lat":38.0992904,"lon":128.617625},{"province":"강원도","city":"양양군","district":"양양읍","lat":38.1087,"lon":128.6145},{"province":"강원도","city":"양양군","district":"양양읍","lat":38.1019,"lon":128.6262},{"province":"강원도","city":"양양군","district":"양양읍","lat":38.1095321,"lon":128.6208125},{"province":"강원도","city":"양양군","district":"양양읍","lat":38.1043,"lon":128.6387},{"province":"강원도","city":"양양군","district":"양양읍","lat":38.0611,"lon":128.622},{"province":"강원도","city":"양양군","district":"양양읍","lat":38.0878,"lon":128.6337},{"province":"강원도","city":"양양군","district":"양양읍","lat":38.0884,"lon":128.6196},{"province":"강원도","city":"양양군","district":"양양읍","lat":38.0807,"lon":128.6292},{"province":"강원도","city":"양양군","district":"양양읍","lat":38.07565,"lon":128.617975},{"province":"강원도","city":"양양군","district":"양양읍","lat":38.0778424,"lon":128.6163049},{"province":"강원도","city":"양양군","district":"양양읍","lat":38.0792,"lon":128.6206},{"province":"강원도","city":"양양군","district":"양양읍","lat":38.072125,"lon":128.6215},{"province":"강원도","city":"고성군","district":null,"lat":38.3806154,"lon":128.4678625},{"province":"강원도","city":"고성군","district":"수동면","lat":38.4462352,"lon":128.3093185},{"province":"강원도","city":"고성군","district":"토성면","lat":38.2571858,"lon":128.5585786},{"province":"강원도","city":"고성군","district":"토성면","lat":38.2834833,"lon":128.5400625},{"province":"강원도","city":"고성군","district":"토성면","lat":38.255667,"lon":128.5189},{"province":"강원도","city":"고성군","district":"토성면","lat":38.2476938,"lon":128.558028},{"province":"강원도","city":"고성군","district":"토성면","lat":38.2307502,"lon":128.5711621},{"province":"강원도","city":"고성군","district":"토성면","lat":38.2016374,"lon":128.4856634},{"province":"강원도","city":"고성군","district":"토성면","lat":38.2227929,"lon":128.5468},{"province":"강원도","city":"고성군","district":"토성면","lat":38.2247819,"lon":128.5148263},{"province":"강원도","city":"고성군","district":"토성면","lat":38.2286779,"lon":128.4919156},{"province":"강원도","city":"고성군","district":"토성면","lat":38.2632716,"lon":128.534868},{"province":"강원도","city":"고성군","district":"토성면","lat":38.2706231,"lon":128.4699773},{"province":"강원도","city":"고성군","district":"토성면","lat":38.2852429,"lon":128.4892414},{"province":"강원도","city":"고성군","district":"토성면","lat":38.2947417,"lon":128.5180125},{"province":"강원도","city":"고성군","district":"토성면","lat":38.2921083,"lon":128.540325},{"province":"강원도","city":"고성군","district":"토성면","lat":38.283254,"lon":128.5357545},{"province":"강원도","city":"고성군","district":"토성면","lat":38.2726,"lon":128.5493625},{"province":"강원도","city":"고성군","district":"토성면","lat":38.2679083,"lon":128.555575},{"province":"강원도","city":"고성군","district":"토성면","lat":38.2570167,"lon":128.5584625},{"province":"강원도","city":"고성군","district":"죽왕면","lat":38.3288661,"lon":128.5255087},{"province":"강원도","city":"고성군","district":"죽왕면","lat":38.307866,"lon":128.5356899},{"province":"강원도","city":"고성군","district":"죽왕면","lat":38.3029833,"lon":128.5432125},{"province":"강원도","city":"고성군","district":"죽왕면","lat":38.3036875,"lon":128.5003094},{"province":"강원도","city":"고성군","district":"죽왕면","lat":38.3168083,"lon":128.519125},{"province":"강원도","city":"고성군","district":"죽왕면","lat":38.3147754,"lon":128.4660526},{"province":"강원도","city":"고성군","district":"죽왕면","lat":38.3249091,"lon":128.5010477},{"province":"강원도","city":"고성군","district":"죽왕면","lat":38.3407017,"lon":128.5010944},{"province":"강원도","city":"고성군","district":"죽왕면","lat":38.3568989,"lon":128.4976848},{"province":"강원도","city":"고성군","district":"죽왕면","lat":38.3716571,"lon":128.508325},{"province":"강원도","city":"고성군","district":"죽왕면","lat":38.3728549,"lon":128.4866583},{"province":"강원도","city":"고성군","district":"죽왕면","lat":38.3316124,"lon":128.5225776},{"province":"강원도","city":"고성군","district":"현내면","lat":38.4944328,"lon":128.4276245},{"province":"강원도","city":"고성군","district":"현내면","lat":38.5598164,"lon":128.3967361},{"province":"강원도","city":"고성군","district":"현내면","lat":38.581674,"lon":128.3613627},{"province":"강원도","city":"고성군","district":"현내면","lat":38.566269,"lon":128.367668},{"province":"강원도","city":"고성군","district":"현내면","lat":38.5636364,"lon":128.3820229},{"province":"강원도","city":"고성군","district":"현내면","lat":38.52455,"lon":128.3996625},{"province":"강원도","city":"고성군","district":"현내면","lat":38.5390667,"lon":128.4010375},{"province":"강원도","city":"고성군","district":"현내면","lat":38.5192349,"lon":128.4136522},{"province":"강원도","city":"고성군","district":"현내면","lat":38.5082167,"lon":128.3925875},{"province":"강원도","city":"고성군","district":"현내면","lat":38.4814,"lon":128.3688},{"province":"강원도","city":"고성군","district":"현내면","lat":38.4733846,"lon":128.4120875},{"province":"강원도","city":"고성군","district":"현내면","lat":38.4643096,"lon":128.4207},{"province":"강원도","city":"고성군","district":"현내면","lat":38.4814003,"lon":128.4255819},{"province":"강원도","city":"고성군","district":"현내면","lat":38.4906429,"lon":128.4250625},{"province":"강원도","city":"고성군","district":"현내면","lat":38.5007793,"lon":128.418277},{"province":"강원도","city":"고성군","district":"거진읍","lat":38.4362818,"lon":128.4528629},{"province":"강원도","city":"고성군","district":"거진읍","lat":38.4400013,"lon":128.443275},{"province":"강원도","city":"고성군","district":"거진읍","lat":38.4022237,"lon":128.4473625},{"province":"강원도","city":"고성군","district":"거진읍","lat":38.4122,"lon":128.3733},{"province":"강원도","city":"고성군","district":"거진읍","lat":38.4452179,"lon":128.4398625},{"province":"강원도","city":"고성군","district":"거진읍","lat":38.4340679,"lon":128.4395625},{"province":"강원도","city":"고성군","district":"거진읍","lat":38.4215763,"lon":128.462775},{"province":"강원도","city":"고성군","district":"거진읍","lat":38.3997737,"lon":128.4677875},{"province":"강원도","city":"고성군","district":"거진읍","lat":38.3939821,"lon":128.4568125},{"province":"강원도","city":"고성군","district":"거진읍","lat":38.3976571,"lon":128.4328875},{"province":"강원도","city":"고성군","district":"거진읍","lat":38.4113071,"lon":128.4259875},{"province":"강원도","city":"고성군","district":"거진읍","lat":38.4372179,"lon":128.4044},{"province":"강원도","city":"고성군","district":"거진읍","lat":38.4542013,"lon":128.3958875},{"province":"강원도","city":"고성군","district":"거진읍","lat":38.4492263,"lon":128.399125},{"province":"강원도","city":"고성군","district":"거진읍","lat":38.4416179,"lon":128.4234},{"province":"강원도","city":"고성군","district":"거진읍","lat":38.4550513,"lon":128.418775},{"province":"강원도","city":"고성군","district":"거진읍","lat":38.4619801,"lon":128.442106},{"province":"강원도","city":"고성군","district":"거진읍","lat":38.4486679,"lon":128.4535875},{"province":"강원도","city":"고성군","district":"간성읍","lat":38.3783811,"lon":128.4670022},{"province":"강원도","city":"고성군","district":"간성읍","lat":38.2656,"lon":128.375225},{"province":"강원도","city":"고성군","district":"간성읍","lat":38.3732987,"lon":128.4649125},{"province":"강원도","city":"고성군","district":"간성읍","lat":38.3490321,"lon":128.46815},{"province":"강원도","city":"고성군","district":"간성읍","lat":38.2926167,"lon":128.362975},{"province":"강원도","city":"고성군","district":"간성읍","lat":38.3337,"lon":128.361},{"province":"강원도","city":"고성군","district":"간성읍","lat":38.3608071,"lon":128.4210875},{"province":"강원도","city":"고성군","district":"간성읍","lat":38.3721571,"lon":128.4142375},{"province":"강원도","city":"고성군","district":"간성읍","lat":38.3885987,"lon":128.420625},{"province":"강원도","city":"고성군","district":"간성읍","lat":38.3794987,"lon":128.4414625},{"province":"강원도","city":"고성군","district":"간성읍","lat":38.370115,"lon":128.4481088},{"province":"강원도","city":"고성군","district":"간성읍","lat":38.3786321,"lon":128.46335},{"province":"강원도","city":"고성군","district":"간성읍","lat":38.3957,"lon":128.4725},{"province":"강원도","city":"고성군","district":"간성읍","lat":38.3934987,"lon":128.48185},{"province":"강원도","city":"고성군","district":"간성읍","lat":38.3782237,"lon":128.4713375},{"province":"강원도","city":"고성군","district":"간성읍","lat":38.3790457,"lon":128.4681046},{"province":"강원도","city":"인제군","district":null,"lat":38.069732,"lon":128.170352},{"province":"강원도","city":"인제군","district":"상남면","lat":37.8741414,"lon":128.2599651},{"province":"강원도","city":"인제군","district":"상남면","lat":37.8621,"lon":128.3509},{"province":"강원도","city":"인제군","district":"상남면","lat":37.9150904,"lon":128.289625},{"province":"강원도","city":"인제군","district":"상남면","lat":37.879346,"lon":128.2274534},{"province":"강원도","city":"인제군","district":"서화면","lat":38.218376,"lon":128.208513},{"province":"강원도","city":"인제군","district":"서화면","lat":38.253,"lon":128.17485},{"province":"강원도","city":"인제군","district":"서화면","lat":38.2743,"lon":128.257938},{"province":"강원도","city":"인제군","district":"서화면","lat":38.2054,"lon":128.1688},{"province":"강원도","city":"인제군","district":"서화면","lat":38.2279,"lon":128.2296},{"province":"강원도","city":"인제군","district":"기린면","lat":37.955601,"lon":128.319175},{"province":"강원도","city":"인제군","district":"기린면","lat":37.9969,"lon":128.4375},{"province":"강원도","city":"인제군","district":"기린면","lat":37.9254,"lon":128.4052},{"province":"강원도","city":"인제군","district":"기린면","lat":37.9749,"lon":128.2835},{"province":"강원도","city":"인제군","district":"기린면","lat":38.0079237,"lon":128.3293146},{"province":"강원도","city":"인제군","district":"기린면","lat":37.9426021,"lon":128.3143326},{"province":"강원도","city":"인제군","district":"북면","lat":38.124674,"lon":128.204138},{"province":"강원도","city":"인제군","district":"북면","lat":38.2005598,"lon":128.352019},{"province":"강원도","city":"인제군","district":"북면","lat":38.1399988,"lon":128.2846399},{"province":"강원도","city":"인제군","district":"북면","lat":38.1624,"lon":128.1898},{"province":"강원도","city":"인제군","district":"북면","lat":38.1383394,"lon":128.2226585},{"province":"강원도","city":"인제군","district":"남면","lat":37.965968,"lon":128.083362},{"province":"강원도","city":"인제군","district":"남면","lat":37.9355646,"lon":128.1451318},{"province":"강원도","city":"인제군","district":"남면","lat":37.9671,"lon":128.0156},{"province":"강원도","city":"인제군","district":"남면","lat":37.9977281,"lon":128.0470923},{"province":"강원도","city":"인제군","district":"남면","lat":37.9771,"lon":128.0585},{"province":"강원도","city":"인제군","district":"남면","lat":38.0221,"lon":128.0747},{"province":"강원도","city":"인제군","district":"남면","lat":38.0184833,"lon":128.1055375},{"province":"강원도","city":"인제군","district":"남면","lat":38.0076,"lon":128.1556},{"province":"강원도","city":"인제군","district":"남면","lat":37.9539116,"lon":128.1776935},{"province":"강원도","city":"인제군","district":"남면","lat":37.9091212,"lon":128.1420644},{"province":"강원도","city":"인제군","district":"남면","lat":37.992805,"lon":128.1122362},{"province":"강원도","city":"인제군","district":"남면","lat":37.922993,"lon":128.0785},{"province":"강원도","city":"인제군","district":"남면","lat":37.9594,"lon":128.0884},{"province":"강원도","city":"인제군","district":"남면","lat":37.9688411,"lon":128.0843271},{"province":"강원도","city":"인제군","district":"인제읍","lat":38.070392,"lon":128.172188},{"province":"강원도","city":"인제군","district":"인제읍","lat":38.036626,"lon":128.2215617},{"province":"강원도","city":"인제군","district":"인제읍","lat":38.0268952,"lon":128.2793814},{"province":"강원도","city":"인제군","district":"인제읍","lat":38.0671,"lon":128.323688},{"province":"강원도","city":"인제군","district":"인제읍","lat":38.1531,"lon":128.1195},{"province":"강원도","city":"인제군","district":"인제읍","lat":38.0494,"lon":128.386},{"province":"강원도","city":"인제군","district":"인제읍","lat":37.9996,"lon":128.2244},{"province":"강원도","city":"인제군","district":"인제읍","lat":38.075333,"lon":128.259063},{"province":"강원도","city":"인제군","district":"인제읍","lat":38.0882,"lon":128.2005},{"province":"강원도","city":"인제군","district":"인제읍","lat":38.0874,"lon":128.174},{"province":"강원도","city":"인제군","district":"인제읍","lat":38.0779,"lon":128.1417},{"province":"강원도","city":"인제군","district":"인제읍","lat":38.0667808,"lon":128.177116},{"province":"강원도","city":"양구군","district":null,"lat":38.109992,"lon":127.99},{"province":"강원도","city":"양구군","district":"해안면","lat":38.2851903,"lon":128.137164},{"province":"강원도","city":"양구군","district":"해안면","lat":38.3017667,"lon":128.1351125},{"province":"강원도","city":"양구군","district":"해안면","lat":38.3128692,"lon":128.1096183},{"province":"강원도","city":"양구군","district":"해안면","lat":38.3044202,"lon":128.1594474},{"province":"강원도","city":"양구군","district":"해안면","lat":38.268225,"lon":128.1282},{"province":"강원도","city":"양구군","district":"해안면","lat":38.2686,"lon":128.1045},{"province":"강원도","city":"양구군","district":"해안면","lat":38.2932167,"lon":128.1202375},{"province":"강원도","city":"양구군","district":"방산면","lat":38.2090111,"lon":127.9494182},{"province":"강원도","city":"양구군","district":"방산면","lat":38.2552,"lon":127.8864},{"province":"강원도","city":"양구군","district":"방산면","lat":38.2250929,"lon":127.98645},{"province":"강원도","city":"양구군","district":"방산면","lat":38.2269096,"lon":127.95515},{"province":"강원도","city":"양구군","district":"방산면","lat":38.2055096,"lon":127.950375},{"province":"강원도","city":"양구군","district":"방산면","lat":38.2152,"lon":127.9611},{"province":"강원도","city":"양구군","district":"방산면","lat":38.1983679,"lon":127.930675},{"province":"강원도","city":"양구군","district":"방산면","lat":38.1895179,"lon":127.9222125},{"province":"강원도","city":"양구군","district":"방산면","lat":38.2192378,"lon":127.9302042},{"province":"강원도","city":"양구군","district":"동면","lat":38.2023271,"lon":128.0434985},{"province":"강원도","city":"양구군","district":"동면","lat":38.2180763,"lon":128.0439375},{"province":"강원도","city":"양구군","district":"동면","lat":38.2211532,"lon":128.083416},{"province":"강원도","city":"양구군","district":"동면","lat":38.2033566,"lon":128.0449016},{"province":"강원도","city":"양구군","district":"동면","lat":38.1909929,"lon":128.0361875},{"province":"강원도","city":"양구군","district":"동면","lat":38.1899108,"lon":128.0681674},{"province":"강원도","city":"양구군","district":"동면","lat":38.1715,"lon":128.0342},{"province":"강원도","city":"양구군","district":"동면","lat":38.1684346,"lon":128.047275},{"province":"강원도","city":"양구군","district":"남면","lat":38.1084672,"lon":128.0345315},{"province":"강원도","city":"양구군","district":"남면","lat":38.0578083,"lon":128.0750875},{"province":"강원도","city":"양구군","district":"남면","lat":38.04245,"lon":128.04925},{"province":"강원도","city":"양구군","district":"남면","lat":38.0592417,"lon":127.9849125},{"province":"강원도","city":"양구군","district":"남면","lat":38.070175,"lon":127.9922125},{"province":"강원도","city":"양구군","district":"남면","lat":38.0775917,"lon":128.00675},{"province":"강원도","city":"양구군","district":"남면","lat":38.0747917,"lon":128.0236625},{"province":"강원도","city":"양구군","district":"남면","lat":38.0807,"lon":128.033},{"province":"강원도","city":"양구군","district":"남면","lat":38.0911154,"lon":128.0164375},{"province":"강원도","city":"양구군","district":"남면","lat":38.0980237,"lon":128.0260375},{"province":"강원도","city":"양구군","district":"남면","lat":38.0984,"lon":128.0624},{"province":"강원도","city":"양구군","district":"남면","lat":38.1102154,"lon":128.0346625},{"province":"강원도","city":"양구군","district":"남면","lat":38.1204195,"lon":128.05111},{"province":"강원도","city":"양구군","district":"남면","lat":38.1389121,"lon":128.0614945},{"province":"강원도","city":"양구군","district":"남면","lat":38.1560247,"lon":128.0671339},{"province":"강원도","city":"양구군","district":"양구읍","lat":38.1080304,"lon":127.9906024},{"province":"강원도","city":"양구군","district":"양구읍","lat":38.1460737,"lon":127.9025},{"province":"강원도","city":"양구군","district":"양구읍","lat":38.1063821,"lon":127.929975},{"province":"강원도","city":"양구군","district":"양구읍","lat":38.1609987,"lon":127.9654875},{"province":"강원도","city":"양구군","district":"양구읍","lat":38.1300904,"lon":127.9525},{"province":"강원도","city":"양구군","district":"양구읍","lat":38.1693013,"lon":128.0046875},{"province":"강원도","city":"양구군","district":"양구읍","lat":38.1520487,"lon":128.0166125},{"province":"강원도","city":"양구군","district":"양구읍","lat":38.1348987,"lon":128.0076375},{"province":"강원도","city":"양구군","district":"양구읍","lat":38.144099,"lon":127.981287},{"province":"강원도","city":"양구군","district":"양구읍","lat":38.1200737,"lon":127.9748},{"province":"강원도","city":"양구군","district":"양구읍","lat":38.0962053,"lon":127.9839215},{"province":"강원도","city":"양구군","district":"양구읍","lat":38.0886987,"lon":127.97575},{"province":"강원도","city":"양구군","district":"양구읍","lat":38.0819667,"lon":127.9827875},{"province":"강원도","city":"양구군","district":"양구읍","lat":38.0699417,"lon":127.982175},{"province":"강원도","city":"양구군","district":"양구읍","lat":38.0595333,"lon":127.975875},{"province":"강원도","city":"양구군","district":"양구읍","lat":38.0459833,"lon":127.97505},{"province":"강원도","city":"양구군","district":"양구읍","lat":38.0601833,"lon":127.9428125},{"province":"강원도","city":"양구군","district":"양구읍","lat":38.03605,"lon":127.9235625},{"province":"강원도","city":"양구군","district":"양구읍","lat":38.093672,"lon":128.0008605},{"province":"강원도","city":"양구군","district":"양구읍","lat":38.1129832,"lon":127.9801803},{"province":"강원도","city":"양구군","district":"양구읍","lat":38.1086107,"lon":127.9892467},{"province":"강원도","city":"양구군","district":"양구읍","lat":38.1054987,"lon":127.9931375},{"province":"강원도","city":"화천군","district":null,"lat":38.106181,"lon":127.708216},{"province":"강원도","city":"화천군","district":"사내면","lat":38.070158,"lon":127.523438},{"province":"강원도","city":"화천군","district":"사내면","lat":38.0481833,"lon":127.522125},{"province":"강원도","city":"화천군","district":"사내면","lat":38.0610386,"lon":127.5525751},{"province":"강원도","city":"화천군","district":"사내면","lat":38.1206654,"lon":127.5297875},{"province":"강원도","city":"화천군","district":"사내면","lat":38.0772417,"lon":127.4746125},{"province":"강원도","city":"화천군","district":"사내면","lat":38.0749083,"lon":127.5199125},{"province":"강원도","city":"화천군","district":"상서면","lat":38.1578152,"lon":127.654211},{"province":"강원도","city":"화천군","district":"상서면","lat":38.23045,"lon":127.6182021},{"province":"강원도","city":"화천군","district":"상서면","lat":38.179618,"lon":127.5481},{"province":"강원도","city":"화천군","district":"상서면","lat":38.1715499,"lon":127.6231159},{"province":"강원도","city":"화천군","district":"상서면","lat":38.21407,"lon":127.675247},{"province":"강원도","city":"화천군","district":"상서면","lat":38.1862072,"lon":127.6774852},{"province":"강원도","city":"화천군","district":"상서면","lat":38.1709346,"lon":127.6667875},{"province":"강원도","city":"화천군","district":"상서면","lat":38.1593404,"lon":127.65015},{"province":"강원도","city":"화천군","district":"상서면","lat":38.1421321,"lon":127.6528625},{"province":"강원도","city":"화천군","district":"상서면","lat":38.1404237,"lon":127.588625},{"province":"강원도","city":"화천군","district":"상서면","lat":38.1338987,"lon":127.67685},{"province":"강원도","city":"화천군","district":"상서면","lat":38.1205,"lon":127.6794},{"province":"강원도","city":"화천군","district":"하남면","lat":38.0589168,"lon":127.6678331},{"province":"강원도","city":"화천군","district":"하남면","lat":38.0592506,"lon":127.6320012},{"province":"강원도","city":"화천군","district":"하남면","lat":38.057125,"lon":127.699875},{"province":"강원도","city":"화천군","district":"하남면","lat":38.0574,"lon":127.7322},{"province":"강원도","city":"화천군","district":"하남면","lat":38.0817,"lon":127.7109},{"province":"강원도","city":"화천군","district":"하남면","lat":38.0851,"lon":127.7219},{"province":"강원도","city":"화천군","district":"하남면","lat":38.116203,"lon":127.6113945},{"province":"강원도","city":"화천군","district":"하남면","lat":38.0895287,"lon":127.6076178},{"province":"강원도","city":"화천군","district":"하남면","lat":38.1076237,"lon":127.6726875},{"province":"강원도","city":"화천군","district":"하남면","lat":38.059725,"lon":127.66735},{"province":"강원도","city":"화천군","district":"간동면","lat":38.055292,"lon":127.7899},{"province":"강원도","city":"화천군","district":"간동면","lat":38.0896937,"lon":127.7710914},{"province":"강원도","city":"화천군","district":"간동면","lat":38.0732962,"lon":127.791215},{"province":"강원도","city":"화천군","district":"간동면","lat":38.087245,"lon":127.8303857},{"province":"강원도","city":"화천군","district":"간동면","lat":38.0552833,"lon":127.819025},{"province":"강원도","city":"화천군","district":"간동면","lat":38.0319937,"lon":127.8019277},{"province":"강원도","city":"화천군","district":"간동면","lat":38.063225,"lon":127.780825},{"province":"강원도","city":"화천군","district":"간동면","lat":38.0444749,"lon":127.7802044},{"province":"강원도","city":"화천군","district":"화천읍","lat":38.104274,"lon":127.707213},{"province":"강원도","city":"화천군","district":"화천읍","lat":38.1037,"lon":127.7526},{"province":"강원도","city":"화천군","district":"화천읍","lat":38.1765131,"lon":127.8245318},{"province":"강원도","city":"화천군","district":"화천읍","lat":38.1731158,"lon":127.7879556},{"province":"강원도","city":"화천군","district":"화천읍","lat":38.1704429,"lon":127.7112625},{"province":"강원도","city":"화천군","district":"화천읍","lat":38.1109,"lon":127.6868},{"province":"강원도","city":"화천군","district":"화천읍","lat":38.1139322,"lon":127.7227454},